{"name":"Czechy","symbol":"cz","slug":"czechy","extremes":{"north":"51.055457916147","east":"18.859246970143","south":"48.551825002453","west":"12.090604511762"},"breweries":[{"id":201,"name":"Pivovar u Císařské cesty","slug":"pivovar-u-cisarske-cesty","location":{"country":{"name":"Czechy","symbol":"cz","slug":"czechy"},"coordinates":["17.131276","49.492819"],"city":"Držovice","address":"Olomoucká 275\/262"},"date":"październik 2019"},{"id":200,"name":"U krále Ječmínka","slug":"u-krale-jecminka","location":{"country":{"name":"Czechy","symbol":"cz","slug":"czechy"},"coordinates":["17.116604","49.472261"],"city":"Prostějov","address":"Újezd 4a"},"date":"październik 2019"},{"id":199,"name":"Pivovar u Tří králů","slug":"pivovar-u-tri-kralu","location":{"country":{"name":"Czechy","symbol":"cz","slug":"czechy"},"coordinates":["17.088442","49.471997"],"city":"Prostějov","address":"Finská 8"},"date":"październik 2019"},{"id":189,"name":"U Tomana","slug":"u-tomana","location":{"country":{"name":"Czechy","symbol":"cz","slug":"czechy"},"coordinates":["16.607101","49.195189"],"city":"Brno","address":"Svobody 22"},"date":"październik 2019"},{"id":188,"name":"Minipivovar Pegas","slug":"minipivovar-pegas","location":{"country":{"name":"Czechy","symbol":"cz","slug":"czechy"},"coordinates":["16.607166","49.196222"],"city":"Brno","address":"Jakubská 120\/4"},"date":"październik 2019"},{"id":187,"name":"Charlie's Square","slug":"charlies-square","location":{"country":{"name":"Czechy","symbol":"cz","slug":"czechy"},"coordinates":["16.611327","49.192723"],"city":"Brno","address":"Františkánská 498\/7"},"date":"październik 2019"},{"id":186,"name":"Vesnický Pivovar Ohrada","slug":"vesnicky-pivovar-ohrada","location":{"country":{"name":"Czechy","symbol":"cz","slug":"czechy"},"coordinates":["16.625266","49.533360"],"city":"Vísky","address":"Vísky 100"},"date":"październik 2019"},{"id":159,"name":"1. Roudenský pivovar","slug":"1-roudensky-pivovar","location":{"country":{"name":"Czechy","symbol":"cz","slug":"czechy"},"coordinates":["13.379986","49.753201"],"city":"Plzeň","address":"Na Roudné 387\/17"},"date":"sierpień 2019"},{"id":158,"name":"Plzeňský Prazdroj","slug":"plzensky-prazdroj","location":{"country":{"name":"Czechy","symbol":"cz","slug":"czechy"},"coordinates":["13.388640","49.749235"],"city":"Plzeň","address":"U Prazdroje 113"},"date":"sierpień 2019"},{"id":157,"name":"Plzeňský Prazdroj (experimental microbrewery)","slug":"plzensky-prazdroj-experimental-microbrewery","location":{"country":{"name":"Czechy","symbol":"cz","slug":"czechy"},"coordinates":["13.387387","49.747613"],"city":"Plzeň","address":"U Prazdroje 113"},"date":"sierpień 2019"},{"id":156,"name":"Beer Factory","slug":"beer-factory","location":{"country":{"name":"Czechy","symbol":"cz","slug":"czechy"},"coordinates":["13.377382","49.748889"],"city":"Plzeň","address":"Dominikánská 8"},"date":"sierpień 2019"},{"id":143,"name":"Pivovar Welzl","slug":"pivovar-welzl","location":{"country":{"name":"Czechy","symbol":"cz","slug":"czechy"},"coordinates":["16.861102","49.887987"],"city":"Zábřeh","address":"Krumpach 2057\/24A"},"date":"sierpień 2019"},{"id":142,"name":"Pivovar Chomout","slug":"pivovar-chomout","location":{"country":{"name":"Czechy","symbol":"cz","slug":"czechy"},"coordinates":["17.231346","49.641736"],"city":"Olomouc","address":"Dalimilova 18\/92"},"date":"sierpień 2019"},{"id":141,"name":"Hostinský pivovar Moritz","slug":"hostinsky-pivovar-moritz","location":{"country":{"name":"Czechy","symbol":"cz","slug":"czechy"},"coordinates":["17.249779","49.590624"],"city":"Olomouc","address":"Nešverova 2"},"date":"sierpień 2019"},{"id":140,"name":"Svatováclavský Pivovar","slug":"svatovaclavsky-pivovar","location":{"country":{"name":"Czechy","symbol":"cz","slug":"czechy"},"coordinates":["17.258709","49.595876"],"city":"Olomouc","address":"Mariánská 845\/4"},"date":"sierpień 2019"},{"id":86,"name":"Pivovar Holba","slug":"pivovar-holba","location":{"country":{"name":"Czechy","symbol":"cz","slug":"czechy"},"coordinates":["16.927799","50.069870"],"city":"Hanušovice","address":"Pivovarská 261"},"date":"lipiec 2018"},{"id":85,"name":"Minipivovar Zlosin","slug":"minipivovar-zlosin","location":{"country":{"name":"Czechy","symbol":"cz","slug":"czechy"},"coordinates":["17.027992","50.033608"],"city":"Velké Losiny","address":"Žárovská 10"},"date":"lipiec 2018"},{"id":84,"name":"Minipivovar U Jirsáka","slug":"minipivovar-u-jirsaka","location":{"country":{"name":"Czechy","symbol":"cz","slug":"czechy"},"coordinates":["17.001775","49.967264"],"city":"Vikýřovice","address":"Šumperská 128"},"date":"lipiec 2018"},{"id":83,"name":"U Černého Medvěda","slug":"u-cerneho-medveda","location":{"country":{"name":"Czechy","symbol":"cz","slug":"czechy"},"coordinates":["16.600025","50.030091"],"city":"Jablonné nad Orlicí","address":"5. května 24"},"date":"lipiec 2018"},{"id":71,"name":"Pivovárek na Kopečku","slug":"pivovarek-na-kopecku","location":{"country":{"name":"Czechy","symbol":"cz","slug":"czechy"},"coordinates":["16.460646","49.752344"],"city":"Svitavy","address":"Radiměřská 5a"},"date":"lipiec 2017"},{"id":41,"name":"Zámecký pivovar Frýdlant","slug":"zamecky-pivovar-frydlant","location":{"country":{"name":"Czechy","symbol":"cz","slug":"czechy"},"coordinates":["15.087051","50.914583"],"city":"Frýdlant","address":"Hejnická 4018"},"date":"sierpień 2016"},{"id":40,"name":"Pivovar Cvikov","slug":"pivovar-cvikov","location":{"country":{"name":"Czechy","symbol":"cz","slug":"czechy"},"coordinates":["14.642248","50.776766"],"city":"Cvikov","address":"Pivovarská 405"},"date":"sierpień 2016"},{"id":39,"name":"Minipivovar Skalický Budulínek","slug":"minipivovar-skalicky-budulinek","location":{"country":{"name":"Czechy","symbol":"cz","slug":"czechy"},"coordinates":["14.525247","50.741642"],"city":"Skalice u České Lípy","address":"Skalice u České Lípy 464"},"date":"sierpień 2016"},{"id":38,"name":"Pivovar Kotouč","slug":"pivovar-kotouc","location":{"country":{"name":"Czechy","symbol":"cz","slug":"czechy"},"coordinates":["14.414845","50.798033"],"city":"Česká Kamenice","address":"Pivovarská 3"},"date":"sierpień 2016"},{"id":37,"name":"Centrum Pivovar","slug":"centrum-pivovar","location":{"country":{"name":"Czechy","symbol":"cz","slug":"czechy"},"coordinates":["14.193125","50.772446"],"city":"Děčín","address":"Sofijská 2\/3"},"date":"sierpień 2016"},{"id":36,"name":"Na Rychtě","slug":"na-rychte","location":{"country":{"name":"Czechy","symbol":"cz","slug":"czechy"},"coordinates":["14.041992","50.659741"],"city":"Ústí nad Labem","address":"Klášterní 75\/9"},"date":"sierpień 2016"},{"id":35,"name":"Pivovar Březňák","slug":"pivovar-breznak","location":{"country":{"name":"Czechy","symbol":"cz","slug":"czechy"},"coordinates":["14.139121","50.664641"],"city":"Velké Březno","address":"Pivovarská 116"},"date":"sierpień 2016"},{"id":34,"name":"Biskupský pivovar u sv. Štěpána","slug":"biskupsky-pivovar-u-sv-stepana","location":{"country":{"name":"Czechy","symbol":"cz","slug":"czechy"},"coordinates":["14.153247","50.536656"],"city":"Litoměřice","address":"Komenského 748\/4"},"date":"sierpień 2016"},{"id":33,"name":"Minipivovar Labuť","slug":"minipivovar-labut","location":{"country":{"name":"Czechy","symbol":"cz","slug":"czechy"},"coordinates":["14.127025","50.537522"],"city":"Litoměřice","address":"Zítkova 784\/5"},"date":"sierpień 2016"},{"id":32,"name":"Litoměřický pivovárek Koliba","slug":"litomericky-pivovarek-koliba","location":{"country":{"name":"Czechy","symbol":"cz","slug":"czechy"},"coordinates":["14.135112","50.535050"],"city":"Litoměřice","address":"Českolipská 2100\/12"},"date":"sierpień 2016"},{"id":22,"name":"Minipivovar Žamberk Kanec","slug":"minipivovar-zamberk-kanec","location":{"country":{"name":"Czechy","symbol":"cz","slug":"czechy"},"coordinates":["16.460829","50.087102"],"city":"Žamberk","address":"Československé armády 1400"},"date":"październik 2015"},{"id":21,"name":"Pivovar Clock","slug":"pivovar-clock","location":{"country":{"name":"Czechy","symbol":"cz","slug":"czechy"},"coordinates":["16.307572","50.082229"],"city":"Potštejn","address":"Školní 2"},"date":"październik 2015"},{"id":20,"name":"Pivovar Rychnov nad Kněžnou","slug":"pivovar-rychnov-nad-kneznou","location":{"country":{"name":"Czechy","symbol":"cz","slug":"czechy"},"coordinates":["16.278665","50.171188"],"city":"Rychnov nad Kněžnou","address":"Kaštany 435"},"date":"październik 2015"},{"id":19,"name":"Pivovárek Dobruška","slug":"pivovarek-dobruska","location":{"country":{"name":"Czechy","symbol":"cz","slug":"czechy"},"coordinates":["16.162780","50.294666"],"city":"Dobruška","address":"Křovická 267"},"date":"październik 2015"},{"id":18,"name":"Pivovar Náchod","slug":"pivovar-nachod","location":{"country":{"name":"Czechy","symbol":"cz","slug":"czechy"},"coordinates":["16.162119","50.417219"],"city":"Náchod","address":"Dobrošovská 130"},"date":"październik 2015"},{"id":12,"name":"Minipivovar Friesovy Boudy","slug":"minipivovar-friesovy-boudy","location":{"country":{"name":"Czechy","symbol":"cz","slug":"czechy"},"coordinates":["15.651431","50.700016"],"city":"Strážné","address":"Strážné 96"},"date":"maj 2015"},{"id":11,"name":"Pivovar Hendrych","slug":"pivovar-hendrych","location":{"country":{"name":"Czechy","symbol":"cz","slug":"czechy"},"coordinates":["15.603281","50.654901"],"city":"Vrchlabí","address":"Horská 192"},"date":"maj 2015"},{"id":10,"name":"Pivovarská Bašta","slug":"pivovarska-basta","location":{"country":{"name":"Czechy","symbol":"cz","slug":"czechy"},"coordinates":["15.608565","50.642908"],"city":"Vrchlabí","address":"Horská 198"},"date":"maj 2015"},{"id":9,"name":"Pivovar Krakonoš","slug":"pivovar-krakonos","location":{"country":{"name":"Czechy","symbol":"cz","slug":"czechy"},"coordinates":["15.908550","50.561473"],"city":"Trutnov","address":"Křižíkova 486"},"date":"maj 2015"}],"breweriesCount":39}