{"name":"Niemcy","symbol":"de","slug":"niemcy","extremes":{"north":"55.114503295135","east":"15.041832999796","south":"47.270237008094","west":"5.8663140147865"},"breweries":[{"id":151,"name":"Wichtel","slug":"wichtel","location":{"country":{"name":"Niemcy","symbol":"de","slug":"niemcy"},"coordinates":["9.003468","48.690027"],"city":"Böblingen","address":"Wolfgang-Brumme-Allee 55"},"date":"sierpień 2019"},{"id":150,"name":"Brauerei zum Rossknecht","slug":"brauerei-zum-rossknecht","location":{"country":{"name":"Niemcy","symbol":"de","slug":"niemcy"},"coordinates":["9.188823","48.899164"],"city":"Ludwigsburg","address":"Reithauspl. 21"},"date":"sierpień 2019"},{"id":149,"name":"Klosterbräu Bamberg","slug":"klosterbrau-bamberg","location":{"country":{"name":"Niemcy","symbol":"de","slug":"niemcy"},"coordinates":["10.887195","49.889262"],"city":"Bamberg","address":"Obere Mühlbrücke 1-3"},"date":"sierpień 2019"},{"id":148,"name":"Ambräusianum","slug":"ambrausianum","location":{"country":{"name":"Niemcy","symbol":"de","slug":"niemcy"},"coordinates":["10.884596","49.891779"],"city":"Bamberg","address":"Dominikanerstraße 10"},"date":"sierpień 2019"},{"id":147,"name":"Schlenkerla, die historische Rauchbierbrauerei","slug":"schlenkerla-die-historische-rauchbierbrauerei","location":{"country":{"name":"Niemcy","symbol":"de","slug":"niemcy"},"coordinates":["10.884921","49.891714"],"city":"Bamberg","address":"Dominikanerstraße 6"},"date":"sierpień 2019"},{"id":146,"name":"Brauerei Spezial","slug":"brauerei-spezial","location":{"country":{"name":"Niemcy","symbol":"de","slug":"niemcy"},"coordinates":["10.892811","49.896867"],"city":"Bamberg","address":"Obere Königstraße 10"},"date":"sierpień 2019"},{"id":145,"name":"Brauerei Fässla","slug":"brauerei-fassla","location":{"country":{"name":"Niemcy","symbol":"de","slug":"niemcy"},"coordinates":["10.892787","49.897242"],"city":"Bamberg","address":"Obere Königstraße 19-21"},"date":"sierpień 2019"},{"id":144,"name":"Brauhaus Hartmannsdorf","slug":"brauhaus-hartmannsdorf","location":{"country":{"name":"Niemcy","symbol":"de","slug":"niemcy"},"coordinates":["12.802835","50.886900"],"city":"Hartmannsdorf","address":"Chemnitzer Str. 5"},"date":"sierpień 2019"},{"id":119,"name":"Bautzener Brauhaus","slug":"bautzener-brauhaus","location":{"country":{"name":"Niemcy","symbol":"de","slug":"niemcy"},"coordinates":["14.439666","51.179811"],"city":"Bautzen","address":"Thomas-Mann-Straße 7"},"date":"maj 2019"},{"id":118,"name":"Frenzel-Bräu","slug":"frenzel-brau","location":{"country":{"name":"Niemcy","symbol":"de","slug":"niemcy"},"coordinates":["14.419708","51.171262"],"city":"Bautzen","address":"Humboldtstraße 21A"},"date":"maj 2019"},{"id":117,"name":"Ball & Brauhaus Watzke","slug":"ball-brauhaus-watzke","location":{"country":{"name":"Niemcy","symbol":"de","slug":"niemcy"},"coordinates":["13.715799","51.077546"],"city":"Dresden","address":"Kötzschenbroder Str. 1"},"date":"maj 2019"},{"id":116,"name":"Neustädter Hausbrauerei Schwingenheuer","slug":"neustadter-hausbrauerei-schwingenheuer","location":{"country":{"name":"Niemcy","symbol":"de","slug":"niemcy"},"coordinates":["13.746962","51.069392"],"city":"Dresden","address":"Schönbrunnstraße 1"},"date":"maj 2019"},{"id":115,"name":"Brauhaus am Waldschlösschen","slug":"brauhaus-am-waldschlosschen","location":{"country":{"name":"Niemcy","symbol":"de","slug":"niemcy"},"coordinates":["13.778064","51.067905"],"city":"Dresden","address":"Am Brauhaus 8B"},"date":"maj 2019"},{"id":114,"name":"Bergquell Brauerei Löbau","slug":"bergquell-brauerei-lobau","location":{"country":{"name":"Niemcy","symbol":"de","slug":"niemcy"},"coordinates":["14.659918","51.108824"],"city":"Löbau","address":"Weststraße 7"},"date":"maj 2019"},{"id":79,"name":"Obermühle Brauhaus","slug":"obermuhle-brauhaus","location":{"country":{"name":"Niemcy","symbol":"de","slug":"niemcy"},"coordinates":["14.994513","51.143985"],"city":"Görlitz","address":"An der Obermühle 5"},"date":"marzec 2018"},{"id":78,"name":"Landskron Brau-Manufaktur","slug":"landskron-brau-manufaktur","location":{"country":{"name":"Niemcy","symbol":"de","slug":"niemcy"},"coordinates":["14.988460","51.139940"],"city":"Görlitz","address":"An der Landskronbrauerei 116"},"date":"marzec 2018"},{"id":68,"name":"Usedomer Brauhaus","slug":"usedomer-brauhaus","location":{"country":{"name":"Niemcy","symbol":"de","slug":"niemcy"},"coordinates":["14.166097","53.955741"],"city":"Heringsdorf","address":"Friedensplatz"},"date":"czerwiec 2017"},{"id":67,"name":"Wasserschloss Mellenthin","slug":"wasserschloss-mellenthin","location":{"country":{"name":"Niemcy","symbol":"de","slug":"niemcy"},"coordinates":["14.016687","53.924117"],"city":"Mellenthin","address":"Schloßallee 5"},"date":"czerwiec 2017"},{"id":66,"name":"Stolperhof","slug":"stolperhof","location":{"country":{"name":"Niemcy","symbol":"de","slug":"niemcy"},"coordinates":["13.984371","53.881178"],"city":"Stolpe auf Usedom","address":"Landweg 1"},"date":"czerwiec 2017"},{"id":31,"name":"Brauhaus Weltenbummler","slug":"brauhaus-weltenbummler","location":{"country":{"name":"Niemcy","symbol":"de","slug":"niemcy"},"coordinates":["13.946138","50.873514"],"city":"Berggiesshübel","address":"Sebastian-Kneipp-Straße 6"},"date":"sierpień 2016"},{"id":30,"name":"Schloßbrauerei Weesenstein","slug":"schlossbrauerei-weesenstein","location":{"country":{"name":"Niemcy","symbol":"de","slug":"niemcy"},"coordinates":["13.860080","50.932620"],"city":"Müglitztal","address":"Am Schloßberg 1"},"date":"sierpień 2016"},{"id":29,"name":"Brauhaus Pirna","slug":"brauhaus-pirna","location":{"country":{"name":"Niemcy","symbol":"de","slug":"niemcy"},"coordinates":["13.942950","50.979910"],"city":"Pirna","address":"Basteistraße 60"},"date":"sierpień 2016"},{"id":28,"name":"Radeberger Exportbierbrauerei","slug":"radeberger-exportbierbrauerei","location":{"country":{"name":"Niemcy","symbol":"de","slug":"niemcy"},"coordinates":["13.913549","51.115764"],"city":"Radeberg","address":"Dresdener Str. 2"},"date":"sierpień 2016"},{"id":8,"name":"Mashsee Brauerei","slug":"mashsee-brauerei","location":{"country":{"name":"Niemcy","symbol":"de","slug":"niemcy"},"coordinates":["9.750090","52.363900"],"city":"Hannover","address":"Am Eisenwerk 17"},"date":"marzec 2015"}],"breweriesCount":24}