{"name":"Polska","symbol":"pl","slug":"polska","extremes":{"north":"54.893228199944","east":"24.145597903487","south":"49.002046015419","west":"14.12292900987"},"breweries":[{"id":235,"name":"Browar Milicz","slug":"browar-milicz","location":{"country":{"name":"Polska","symbol":"pl","slug":"polska"},"coordinates":["17.284440","51.522857"],"city":"Milicz","address":"Zielona 5"},"date":"październik 2020"},{"id":234,"name":"Browar Nepomucen","slug":"browar-nepomucen","location":{"country":{"name":"Polska","symbol":"pl","slug":"polska"},"coordinates":["17.148843","51.585578"],"city":"Szkaradowo","address":"Szkaradowo 115"},"date":"październik 2020"},{"id":233,"name":"Browar Cztery Ściany","slug":"browar-cztery-sciany","location":{"country":{"name":"Polska","symbol":"pl","slug":"polska"},"coordinates":["17.072219","51.322647"],"city":"Trzebnica","address":"Milicka 32"},"date":"październik 2020"},{"id":210,"name":"Browar Regionalny EDI","slug":"browar-regionalny-edi","location":{"country":{"name":"Polska","symbol":"pl","slug":"polska"},"coordinates":["16.290251","51.831689"],"city":"Nowa Wieś","address":"Nowa Wieś 5e"},"date":"sierpień 2020"},{"id":209,"name":"Dolina BoBRU","slug":"dolina-bobru","location":{"country":{"name":"Polska","symbol":"pl","slug":"polska"},"coordinates":["15.667475","51.022049"],"city":"Wleń","address":"Zarzecze 4"},"date":"sierpień 2020"},{"id":208,"name":"Browar Lwówek","slug":"browar-lwowek","location":{"country":{"name":"Polska","symbol":"pl","slug":"polska"},"coordinates":["15.584204","51.109507"],"city":"Lwówek Śląski","address":"Traugutta 7"},"date":"sierpień 2020"},{"id":207,"name":"Browar Rzemieślniczy Dziedzice","slug":"browar-rzemieslniczy-dziedzice","location":{"country":{"name":"Polska","symbol":"pl","slug":"polska"},"coordinates":["18.997105","49.911325"],"city":"Czechowice-Dziedzice","address":"Legionów 83A"},"date":"lipiec 2020"},{"id":206,"name":"Browar Zadyma","slug":"browar-zadyma","location":{"country":{"name":"Polska","symbol":"pl","slug":"polska"},"coordinates":["20.021332","49.446059"],"city":"Szaflary","address":"Zakopianka 1"},"date":"lipiec 2020"},{"id":205,"name":"Browar Extract","slug":"browar-extract","location":{"country":{"name":"Polska","symbol":"pl","slug":"polska"},"coordinates":["19.804003","50.021129"],"city":"Kraków","address":"Promowa 10"},"date":"lipiec 2020"},{"id":204,"name":"Anders Browar","slug":"anders-browar","location":{"country":{"name":"Polska","symbol":"pl","slug":"polska"},"coordinates":["17.704686","51.304494"],"city":"Syców","address":"Broniewskiego 33"},"date":"czerwiec 2020"},{"id":203,"name":"Browar Rzemieślniczy Hoppy Lab","slug":"browar-rzemieslniczy-hoppy-lab","location":{"country":{"name":"Polska","symbol":"pl","slug":"polska"},"coordinates":["16.501218","50.937259"],"city":"Żarów","address":"Słowiańska 23"},"date":"maj 2020"},{"id":202,"name":"Sowiduch Browar i Restauracja","slug":"sowiduch-browar-i-restauracja","location":{"country":{"name":"Polska","symbol":"pl","slug":"polska"},"coordinates":["15.755774","50.775112"],"city":"Karpacz","address":"Konstytucji 3-ego Maja 45 A"},"date":"styczeń 2020"},{"id":185,"name":"Browar pod Zamkiem","slug":"browar-pod-zamkiem","location":{"country":{"name":"Polska","symbol":"pl","slug":"polska"},"coordinates":["14.561868","53.426094"],"city":"Szczecin","address":"Panieńska 12"},"date":"październik 2019"},{"id":184,"name":"Browar rodzinny Wyszak","slug":"browar-rodzinny-wyszak","location":{"country":{"name":"Polska","symbol":"pl","slug":"polska"},"coordinates":["14.560190","53.424335"],"city":"Szczecin","address":"Księcia Mściwoja II 8"},"date":"październik 2019"},{"id":183,"name":"Browar Stara Komenda","slug":"browar-stara-komenda","location":{"country":{"name":"Polska","symbol":"pl","slug":"polska"},"coordinates":["14.551265","53.421644"],"city":"Szczecin","address":"Plac Batorego 3"},"date":"październik 2019"},{"id":182,"name":"Nowy Browar Szczecin","slug":"nowy-browar-szczecin","location":{"country":{"name":"Polska","symbol":"pl","slug":"polska"},"coordinates":["14.549771","53.423912"],"city":"Szczecin","address":"Partyzantów 2"},"date":"październik 2019"},{"id":160,"name":"Bierhalle Posnania","slug":"bierhalle-posnania","location":{"country":{"name":"Polska","symbol":"pl","slug":"polska"},"coordinates":["16.954274","52.397957"],"city":"Poznań","address":"Pleszewska 1"},"date":"wrzesień 2019"},{"id":128,"name":"Klubopiwiarnia Warkot","slug":"klubopiwiarnia-warkot","location":{"country":{"name":"Polska","symbol":"pl","slug":"polska"},"coordinates":["19.458399","51.770301"],"city":"Łódź","address":"Narutowicza 7\/9"},"date":"lipiec 2019"},{"id":127,"name":"Salio Browar & Restauracja","slug":"salio-browar-restauracja","location":{"country":{"name":"Polska","symbol":"pl","slug":"polska"},"coordinates":["19.511639","51.952939"],"city":"Besiekierz Rudny","address":"Besiekierz Rudny 50"},"date":"lipiec 2019"},{"id":120,"name":"Browar Brewicz","slug":"browar-brewicz","location":{"country":{"name":"Polska","symbol":"pl","slug":"polska"},"coordinates":["16.869328","51.613867"],"city":"Rawicz","address":"Armii Krajowej 4"},"date":"maj 2019"},{"id":106,"name":"Browar Zielone Wzgórze","slug":"browar-zielone-wzgorze","location":{"country":{"name":"Polska","symbol":"pl","slug":"polska"},"coordinates":["16.735107","50.845959"],"city":"Sulistrowiczki","address":"Parkowa 3"},"date":"grudzień 2018"},{"id":93,"name":"Warsztat Piwowarski","slug":"warsztat-piwowarski","location":{"country":{"name":"Polska","symbol":"pl","slug":"polska"},"coordinates":["17.070944","51.081644"],"city":"Wrocław","address":"Międzyleska 2-4"},"date":"październik 2018"},{"id":92,"name":"Browar Świdnica","slug":"browar-swidnica","location":{"country":{"name":"Polska","symbol":"pl","slug":"polska"},"coordinates":["16.499660","50.830839"],"city":"Świdnica","address":"Bystrzycka 28b"},"date":"październik 2018"},{"id":91,"name":"Jan Olbracht Browar Staromiejski","slug":"jan-olbracht-browar-staromiejski","location":{"country":{"name":"Polska","symbol":"pl","slug":"polska"},"coordinates":["18.605791","53.011100"],"city":"Toruń","address":"Szczytna 15"},"date":"wrzesień 2018"},{"id":89,"name":"Sieradzki Browar Restauracyjny Pompa","slug":"sieradzki-browar-restauracyjny-pompa","location":{"country":{"name":"Polska","symbol":"pl","slug":"polska"},"coordinates":["18.737615","51.594687"],"city":"Sieradz","address":"Rynek 17"},"date":"sierpień 2018"},{"id":88,"name":"Browar Caminus","slug":"browar-caminus","location":{"country":{"name":"Polska","symbol":"pl","slug":"polska"},"coordinates":["16.766502","51.030983"],"city":"Kąty Wrocławskie","address":"1 Maja 11"},"date":"sierpień 2018"},{"id":87,"name":"Browar Wieżyca","slug":"browar-wiezyca","location":{"country":{"name":"Polska","symbol":"pl","slug":"polska"},"coordinates":["16.729274","50.887922"],"city":"Sobótka","address":"Armii Krajowej 13"},"date":"sierpień 2018"},{"id":82,"name":"Browar Miedziowy 44","slug":"browar-miedziowy-44","location":{"country":{"name":"Polska","symbol":"pl","slug":"polska"},"coordinates":["14.263898","53.917795"],"city":"Świnoujście","address":"Uzdrowiskowa 15"},"date":"czerwiec 2018"},{"id":81,"name":"Pałacyk Łąkomin","slug":"palacyk-lakomin","location":{"country":{"name":"Polska","symbol":"pl","slug":"polska"},"coordinates":["14.859883","52.765263"],"city":"Lubiszyn","address":"Łąkomin 1"},"date":"maj 2018"},{"id":80,"name":"Browar Jedlinka","slug":"browar-jedlinka","location":{"country":{"name":"Polska","symbol":"pl","slug":"polska"},"coordinates":["16.358363","50.713068"],"city":"Jedlina-Zdrój","address":"Zamkowa 3"},"date":"maj 2018"},{"id":77,"name":"Browar Słociak","slug":"browar-slociak","location":{"country":{"name":"Polska","symbol":"pl","slug":"polska"},"coordinates":["17.877319","50.697620"],"city":"Opole","address":"Księżycowa 2A"},"date":"wrzesień 2017"},{"id":70,"name":"Browar Turek","slug":"browar-turek","location":{"country":{"name":"Polska","symbol":"pl","slug":"polska"},"coordinates":["18.525900","52.014492"],"city":"Turek","address":"aleja NSZZ Solidarność 37"},"date":"lipiec 2017"},{"id":69,"name":"Legnicki Browar Książecy","slug":"legnicki-browar-ksiazecy","location":{"country":{"name":"Polska","symbol":"pl","slug":"polska"},"coordinates":["16.168097","51.212250"],"city":"Legnica","address":"Dworcowa 9"},"date":"czerwiec 2017"},{"id":57,"name":"Ułan Browar","slug":"ulan-browar","location":{"country":{"name":"Polska","symbol":"pl","slug":"polska"},"coordinates":["16.895479","52.399243"],"city":"Poznań","address":"Stanisława Wyspiańskiego 26"},"date":"listopad 2016"},{"id":56,"name":"Lech Browary Wielkopolski","slug":"lech-browary-wielkopolski","location":{"country":{"name":"Polska","symbol":"pl","slug":"polska"},"coordinates":["16.996839","52.385371"],"city":"Poznań","address":"Szwajcarska 11"},"date":"listopad 2016"},{"id":55,"name":"Browar Złoty Pies","slug":"browar-zloty-pies","location":{"country":{"name":"Polska","symbol":"pl","slug":"polska"},"coordinates":["17.033595","51.110382"],"city":"Wrocław","address":"Rynek 41"},"date":"październik 2016"},{"id":54,"name":"Browar Prost","slug":"browar-prost","location":{"country":{"name":"Polska","symbol":"pl","slug":"polska"},"coordinates":["17.022977","51.150793"],"city":"Wrocław","address":"Paprotna 4"},"date":"październik 2016"},{"id":53,"name":"CTKiR Browar Probus","slug":"ctkir-browar-probus","location":{"country":{"name":"Polska","symbol":"pl","slug":"polska"},"coordinates":["17.301456","50.941937"],"city":"Oława","address":"Młyńska 16"},"date":"październik 2016"},{"id":52,"name":"Stara Zajezdnia Kraków by DeSilva","slug":"stara-zajezdnia-krakow-by-desilva","location":{"country":{"name":"Polska","symbol":"pl","slug":"polska"},"coordinates":["19.947116","50.050119"],"city":"Kraków","address":"Świętego Wawrzyńca 12"},"date":"wrzesień 2016"},{"id":51,"name":"TEA Time Brewpub","slug":"tea-time-brewpub","location":{"country":{"name":"Polska","symbol":"pl","slug":"polska"},"coordinates":["19.936604","50.050066"],"city":"Kraków","address":"Dietla 1"},"date":"wrzesień 2016"},{"id":50,"name":"Browar Lubicz","slug":"browar-lubicz","location":{"country":{"name":"Polska","symbol":"pl","slug":"polska"},"coordinates":["19.949279","50.064464"],"city":"Kraków","address":"Lubicz 17J"},"date":"wrzesień 2016"},{"id":49,"name":"C.K. Browar","slug":"ck-browar","location":{"country":{"name":"Polska","symbol":"pl","slug":"polska"},"coordinates":["19.932708","50.063393"],"city":"Kraków","address":"Podwale 6"},"date":"wrzesień 2016"},{"id":48,"name":"Browar Tenczynek","slug":"browar-tenczynek","location":{"country":{"name":"Polska","symbol":"pl","slug":"polska"},"coordinates":["19.613174","50.119972"],"city":"Tenczynek","address":"Tenczyńska 59"},"date":"wrzesień 2016"},{"id":47,"name":"Pracownia Piwa","slug":"pracownia-piwa","location":{"country":{"name":"Polska","symbol":"pl","slug":"polska"},"coordinates":["19.838354","50.108962"],"city":"Modlniczka","address":"Kasztanowa 31"},"date":"wrzesień 2016"},{"id":46,"name":"Browar Staropolski","slug":"browar-staropolski","location":{"country":{"name":"Polska","symbol":"pl","slug":"polska"},"coordinates":["18.935352","51.598347"],"city":"Zduńska Wola","address":"Świętego Maksymiliana Marii Kolbego 2"},"date":"sierpień 2016"},{"id":45,"name":"Browar Koreb","slug":"browar-koreb","location":{"country":{"name":"Polska","symbol":"pl","slug":"polska"},"coordinates":["19.116613","51.600528"],"city":"Łask","address":"Stefana Żeromskiego 72"},"date":"sierpień 2016"},{"id":44,"name":"Kolwin","slug":"kolwin","location":{"country":{"name":"Polska","symbol":"pl","slug":"polska"},"coordinates":["19.199547","51.620163"],"city":"Łask","address":"Piekarnicza 2"},"date":"sierpień 2016"},{"id":43,"name":"Browar Ziemia Obiecana","slug":"browar-ziemia-obiecana","location":{"country":{"name":"Polska","symbol":"pl","slug":"polska"},"coordinates":["19.352142","51.657678"],"city":"Pabianice","address":"Orla 6\/7\/3C"},"date":"sierpień 2016"},{"id":42,"name":"Browar Restauracyjny Złoty Róg","slug":"browar-restauracyjny-zloty-rog","location":{"country":{"name":"Polska","symbol":"pl","slug":"polska"},"coordinates":["18.087480","51.760567"],"city":"Kalisz","address":"Aleja Wolności 3"},"date":"sierpień 2016"},{"id":27,"name":"Browar Księży Młyn","slug":"browar-ksiezy-mlyn","location":{"country":{"name":"Polska","symbol":"pl","slug":"polska"},"coordinates":["19.476305","51.752514"],"city":"Łódź","address":"Księdza Biskupa Wincentego Tymienieckiego 22\/24"},"date":"lipiec 2016"},{"id":26,"name":"Browar Wiatr","slug":"browar-wiatr","location":{"country":{"name":"Polska","symbol":"pl","slug":"polska"},"coordinates":["18.795629","51.979154"],"city":"Uniejów","address":"Dąbska 49"},"date":"lipiec 2016"},{"id":25,"name":"Browar Roch","slug":"browar-roch","location":{"country":{"name":"Polska","symbol":"pl","slug":"polska"},"coordinates":["16.039856","50.940760"],"city":"Nowe Rochowice","address":"Nowe Rochowice 22"},"date":"maj 2016"},{"id":24,"name":"Brovaria","slug":"brovaria","location":{"country":{"name":"Polska","symbol":"pl","slug":"polska"},"coordinates":["16.932367","52.408013"],"city":"Poznań","address":"Stary Rynek 73-74"},"date":"listopad 2015"},{"id":23,"name":"Browar Profesja","slug":"browar-profesja","location":{"country":{"name":"Polska","symbol":"pl","slug":"polska"},"coordinates":["17.092478","51.130970"],"city":"Wrocław","address":"Kwidzyńska 6E"},"date":"październik 2015"},{"id":17,"name":"Jamrozowa Polana","slug":"jamrozowa-polana","location":{"country":{"name":"Polska","symbol":"pl","slug":"polska"},"coordinates":["16.369122","50.387856"],"city":"Duszniki-Zdrój","address":"Olimpijska 1"},"date":"październik 2015"},{"id":14,"name":"Bierhalle Łódź","slug":"bierhalle-lodz","location":{"country":{"name":"Polska","symbol":"pl","slug":"polska"},"coordinates":["19.446765","51.780448"],"city":"Łódź","address":"Drewnowska 58"},"date":"lipiec 2015"},{"id":13,"name":"Browar Miedzianka","slug":"browar-miedzianka","location":{"country":{"name":"Polska","symbol":"pl","slug":"polska"},"coordinates":["15.939254","50.877754"],"city":"Miedzianka","address":"Miedzianka 57b"},"date":"maj 2015"},{"id":7,"name":"Browar Stu Mostów","slug":"browar-stu-mostow","location":{"country":{"name":"Polska","symbol":"pl","slug":"polska"},"coordinates":["17.059509","51.131720"],"city":"Wrocław","address":"Jana Długosza 2"},"date":"grudzień 2014"},{"id":4,"name":"Browar Widawa","slug":"browar-widawa","location":{"country":{"name":"Polska","symbol":"pl","slug":"polska"},"coordinates":["17.284356","51.083917"],"city":"Chrząstawa Mała","address":"Wrocławska 97"},"date":"czerwiec 2014"},{"id":3,"name":"Brovarnia Gdańsk","slug":"brovarnia-gdansk","location":{"country":{"name":"Polska","symbol":"pl","slug":"polska"},"coordinates":["18.660396","54.349342"],"city":"Gdańsk","address":"Szafarnia 9"},"date":"sierpień 2013"},{"id":2,"name":"Bierhalle Arkadia","slug":"bierhalle-arkadia","location":{"country":{"name":"Polska","symbol":"pl","slug":"polska"},"coordinates":["20.984165","52.256166"],"city":"Warszawa","address":"al. Jana Pawła II 82"},"date":"maj 2012"},{"id":1,"name":"Spiż Wrocław","slug":"spiz-wroclaw","location":{"country":{"name":"Polska","symbol":"pl","slug":"polska"},"coordinates":["17.031211","51.109934"],"city":"Wrocław","address":"Ratusz 2"},"date":"wrzesień 2011"}],"breweriesCount":62}