{"name":"Słowacja","symbol":"sk","slug":"slowacja","extremes":{"north":"49.613801984442","east":"22.566455947525","south":"47.731216001055","west":"16.8331860011"},"breweries":[{"id":198,"name":"Pivovar HOPS","slug":"pivovar-hops","location":{"country":{"name":"Słowacja","symbol":"sk","slug":"slowacja"},"coordinates":["17.096923","48.123973"],"city":"Bratislava","address":"Vilová 2995\/4"},"date":"październik 2019"},{"id":197,"name":"Dunajský Pivovar","slug":"dunajsky-pivovar","location":{"country":{"name":"Słowacja","symbol":"sk","slug":"slowacja"},"coordinates":["17.112638","48.137207"],"city":"Bratislava","address":"Tyršovo nábrežie"},"date":"październik 2019"},{"id":196,"name":"Kláštorný pivovar","slug":"klastorny-pivovar","location":{"country":{"name":"Słowacja","symbol":"sk","slug":"slowacja"},"coordinates":["17.110072","48.146218"],"city":"Bratislava","address":"Námestie SNP 469\/8"},"date":"październik 2019"},{"id":195,"name":"Bratislavský Meštiansky Pivovar (Drevena)","slug":"bratislavsky-mestiansky-pivovar-drevena","location":{"country":{"name":"Słowacja","symbol":"sk","slug":"slowacja"},"coordinates":["17.108149","48.146970"],"city":"Bratislava","address":"Drevena 8"},"date":"październik 2019"},{"id":194,"name":"Fabrika, the beer pub","slug":"fabrika-the-beer-pub","location":{"country":{"name":"Słowacja","symbol":"sk","slug":"slowacja"},"coordinates":["17.107180","48.151809"],"city":"Bratislava","address":"Štefánikova 864\/4"},"date":"październik 2019"},{"id":193,"name":"Starosloviensky pivovar","slug":"starosloviensky-pivovar","location":{"country":{"name":"Słowacja","symbol":"sk","slug":"slowacja"},"coordinates":["17.110637","48.148954"],"city":"Bratislava","address":"Vysoká 4260\/15"},"date":"październik 2019"},{"id":192,"name":"Mestský pivovar Alžbetka","slug":"mestsky-pivovar-alzbetka","location":{"country":{"name":"Słowacja","symbol":"sk","slug":"slowacja"},"coordinates":["17.114082","48.149447"],"city":"Bratislava","address":"Mickiewiczova 2242\/1"},"date":"październik 2019"},{"id":191,"name":"Bratislavský Meštiansky Pivovar (Dunajská)","slug":"bratislavsky-mestiansky-pivovar-dunajska","location":{"country":{"name":"Słowacja","symbol":"sk","slug":"slowacja"},"coordinates":["17.117860","48.145830"],"city":"Bratislava","address":"Dunajská 21"},"date":"październik 2019"}],"breweriesCount":8}