{"name":"Włochy","symbol":"it","slug":"wlochy","extremes":{"north":"47.092146995494","east":"18.6197533608","south":"35.411924202305","west":"6.6266022477703"},"breweries":[{"id":123,"name":"Birra del Console","slug":"birra-del-console","location":{"country":{"name":"Włochy","symbol":"it","slug":"wlochy"},"coordinates":["17.291384","40.956784"],"city":"Monopoli","address":"Via Trieste 24"},"date":"czerwiec 2019"},{"id":122,"name":"Birrificio Bilabì","slug":"birrificio-bilabi","location":{"country":{"name":"Włochy","symbol":"it","slug":"wlochy"},"coordinates":["16.880071","41.105738"],"city":"Bari","address":"Via Adolfo Omodeo 12"},"date":"czerwiec 2019"},{"id":121,"name":"Birrbante","slug":"birrbante","location":{"country":{"name":"Włochy","symbol":"it","slug":"wlochy"},"coordinates":["16.844995","41.100290"],"city":"Bari","address":"Via Marco Partipilo 62"},"date":"czerwiec 2019"},{"id":75,"name":"BEFeD Fiumicello","slug":"befed-fiumicello","location":{"country":{"name":"Włochy","symbol":"it","slug":"wlochy"},"coordinates":["13.406927","45.771247"],"city":"Fiumicello","address":"Via S. Lorenzo 65"},"date":"lipiec 2017"},{"id":74,"name":"Birrificio Tazebao","slug":"birrificio-tazebao","location":{"country":{"name":"Włochy","symbol":"it","slug":"wlochy"},"coordinates":["13.781947","45.634730"],"city":"Trieste","address":"Via Lorenzo Lorenzetti 9"},"date":"lipiec 2017"},{"id":73,"name":"Birrificio Cavana","slug":"birrificio-cavana","location":{"country":{"name":"Włochy","symbol":"it","slug":"wlochy"},"coordinates":["13.766490","45.648619"],"city":"Trieste","address":"Via della Pescheria 18"},"date":"lipiec 2017"}],"breweriesCount":6}