{"label":"lipiec 2018","slug":"07","extremes":{"north":"50.06987","east":"16.600025","south":"49.967264","west":"17.027992"},"breweries":[{"id":83,"name":"U Černého Medvěda","slug":"u-cerneho-medveda","location":{"country":{"name":"Czechy","symbol":"cz","slug":"czechy"},"coordinates":["16.600025","50.030091"],"city":"Jablonné nad Orlicí","address":"5. května 24"},"date":"lipiec 2018"},{"id":84,"name":"Minipivovar U Jirsáka","slug":"minipivovar-u-jirsaka","location":{"country":{"name":"Czechy","symbol":"cz","slug":"czechy"},"coordinates":["17.001775","49.967264"],"city":"Vikýřovice","address":"Šumperská 128"},"date":"lipiec 2018"},{"id":85,"name":"Minipivovar Zlosin","slug":"minipivovar-zlosin","location":{"country":{"name":"Czechy","symbol":"cz","slug":"czechy"},"coordinates":["17.027992","50.033608"],"city":"Velké Losiny","address":"Žárovská 10"},"date":"lipiec 2018"},{"id":86,"name":"Pivovar Holba","slug":"pivovar-holba","location":{"country":{"name":"Czechy","symbol":"cz","slug":"czechy"},"coordinates":["16.927799","50.069870"],"city":"Hanušovice","address":"Pivovarská 261"},"date":"lipiec 2018"}]}