{"label":"grudzień 2018","slug":"12","extremes":{"north":"59.44202","east":"16.735107","south":"50.845959","west":"24.765466"},"breweries":[{"id":103,"name":"Beerhouse","slug":"beerhouse","location":{"country":{"name":"Estonia","symbol":"ee","slug":"estonia"},"coordinates":["24.743865","59.436893"],"city":"Tallinn","address":"Dunkri 5"},"date":"grudzień 2018"},{"id":104,"name":"Koch Pruulikoda","slug":"koch-pruulikoda","location":{"country":{"name":"Estonia","symbol":"ee","slug":"estonia"},"coordinates":["24.765466","59.442020"],"city":"Tallinn","address":"Lootsi 10"},"date":"grudzień 2018"},{"id":105,"name":"Humalakoda","slug":"humalakoda","location":{"country":{"name":"Estonia","symbol":"ee","slug":"estonia"},"coordinates":["24.735516","59.440728"],"city":"Tallinn","address":"Kopli 1"},"date":"grudzień 2018"},{"id":106,"name":"Browar Zielone Wzgórze","slug":"browar-zielone-wzgorze","location":{"country":{"name":"Polska","symbol":"pl","slug":"polska"},"coordinates":["16.735107","50.845959"],"city":"Sulistrowiczki","address":"Parkowa 3"},"date":"grudzień 2018"}]}