{"name":"browar regionalny","slug":"browar-regionalny","extremes":{"north":"51.831689","east":"5.128748","south":"50.06987","west":"19.613174"},"breweries":[{"id":9,"name":"Pivovar Krakonoš","slug":"pivovar-krakonos","location":{"country":{"name":"Czechy","symbol":"cz","slug":"czechy"},"coordinates":["15.908550","50.561473"],"city":"Trutnov","address":"Křižíkova 486"},"date":"maj 2015"},{"id":18,"name":"Pivovar Náchod","slug":"pivovar-nachod","location":{"country":{"name":"Czechy","symbol":"cz","slug":"czechy"},"coordinates":["16.162119","50.417219"],"city":"Náchod","address":"Dobrošovská 130"},"date":"październik 2015"},{"id":35,"name":"Pivovar Březňák","slug":"pivovar-breznak","location":{"country":{"name":"Czechy","symbol":"cz","slug":"czechy"},"coordinates":["14.139121","50.664641"],"city":"Velké Březno","address":"Pivovarská 116"},"date":"sierpień 2016"},{"id":41,"name":"Zámecký pivovar Frýdlant","slug":"zamecky-pivovar-frydlant","location":{"country":{"name":"Czechy","symbol":"cz","slug":"czechy"},"coordinates":["15.087051","50.914583"],"city":"Frýdlant","address":"Hejnická 4018"},"date":"sierpień 2016"},{"id":46,"name":"Browar Staropolski","slug":"browar-staropolski","location":{"country":{"name":"Polska","symbol":"pl","slug":"polska"},"coordinates":["18.935352","51.598347"],"city":"Zduńska Wola","address":"Świętego Maksymiliana Marii Kolbego 2"},"date":"sierpień 2016"},{"id":48,"name":"Browar Tenczynek","slug":"browar-tenczynek","location":{"country":{"name":"Polska","symbol":"pl","slug":"polska"},"coordinates":["19.613174","50.119972"],"city":"Tenczynek","address":"Tenczyńska 59"},"date":"wrzesień 2016"},{"id":78,"name":"Landskron Brau-Manufaktur","slug":"landskron-brau-manufaktur","location":{"country":{"name":"Niemcy","symbol":"de","slug":"niemcy"},"coordinates":["14.988460","51.139940"],"city":"Görlitz","address":"An der Landskronbrauerei 116"},"date":"marzec 2018"},{"id":86,"name":"Pivovar Holba","slug":"pivovar-holba","location":{"country":{"name":"Czechy","symbol":"cz","slug":"czechy"},"coordinates":["16.927799","50.069870"],"city":"Hanušovice","address":"Pivovarská 261"},"date":"lipiec 2018"},{"id":114,"name":"Bergquell Brauerei Löbau","slug":"bergquell-brauerei-lobau","location":{"country":{"name":"Niemcy","symbol":"de","slug":"niemcy"},"coordinates":["14.659918","51.108824"],"city":"Löbau","address":"Weststraße 7"},"date":"maj 2019"},{"id":144,"name":"Brauhaus Hartmannsdorf","slug":"brauhaus-hartmannsdorf","location":{"country":{"name":"Niemcy","symbol":"de","slug":"niemcy"},"coordinates":["12.802835","50.886900"],"city":"Hartmannsdorf","address":"Chemnitzer Str. 5"},"date":"sierpień 2019"},{"id":208,"name":"Browar Lwówek","slug":"browar-lwowek","location":{"country":{"name":"Polska","symbol":"pl","slug":"polska"},"coordinates":["15.584204","51.109507"],"city":"Lwówek Śląski","address":"Traugutta 7"},"date":"sierpień 2020"},{"id":210,"name":"Browar Regionalny EDI","slug":"browar-regionalny-edi","location":{"country":{"name":"Polska","symbol":"pl","slug":"polska"},"coordinates":["16.290251","51.831689"],"city":"Nowa Wieś","address":"Nowa Wieś 5e"},"date":"sierpień 2020"},{"id":213,"name":"Bierbrouwerij De Koningshoeven","slug":"bierbrouwerij-de-koningshoeven","location":{"country":{"name":"Holandia","symbol":"nl","slug":"holandia"},"coordinates":["5.128748","51.543575"],"city":"Berkel-Enschot","address":"Eindhovenseweg 3"},"date":"wrzesień 2020"}],"breweriesCount":13}