{"name":"browar w galerii handlowej","slug":"browar-w-galerii-handlowej","extremes":{"north":"59.440728","east":"14.193125","south":"49.911325","west":"30.521249"},"breweries":[{"id":2,"name":"Bierhalle Arkadia","slug":"bierhalle-arkadia","location":{"country":{"name":"Polska","symbol":"pl","slug":"polska"},"coordinates":["20.984165","52.256166"],"city":"Warszawa","address":"al. Jana Pawła II 82"},"date":"maj 2012"},{"id":14,"name":"Bierhalle Łódź","slug":"bierhalle-lodz","location":{"country":{"name":"Polska","symbol":"pl","slug":"polska"},"coordinates":["19.446765","51.780448"],"city":"Łódź","address":"Drewnowska 58"},"date":"lipiec 2015"},{"id":37,"name":"Centrum Pivovar","slug":"centrum-pivovar","location":{"country":{"name":"Czechy","symbol":"cz","slug":"czechy"},"coordinates":["14.193125","50.772446"],"city":"Děčín","address":"Sofijská 2\/3"},"date":"sierpień 2016"},{"id":105,"name":"Humalakoda","slug":"humalakoda","location":{"country":{"name":"Estonia","symbol":"ee","slug":"estonia"},"coordinates":["24.735516","59.440728"],"city":"Tallinn","address":"Kopli 1"},"date":"grudzień 2018"},{"id":131,"name":"Арена Beer House","slug":"arena-beer-house","location":{"country":{"name":"Ukraina","symbol":"ua","slug":"ukraina"},"coordinates":["30.521249","50.441513"],"city":"Київ","address":"вул. Басейна, 2а"},"date":"lipiec 2019"},{"id":133,"name":"Фрау Роза","slug":"frau-roza","location":{"country":{"name":"Ukraina","symbol":"ua","slug":"ukraina"},"coordinates":["30.490120","50.435749"],"city":"Київ","address":"вул. Василя Липківського, 1А"},"date":"lipiec 2019"},{"id":139,"name":"Броварня Шульц","slug":"brovarnya-sulc","location":{"country":{"name":"Ukraina","symbol":"ua","slug":"ukraina"},"coordinates":["30.491302","50.446478"],"city":"Київ","address":"площа Перемоги, 3"},"date":"lipiec 2019"},{"id":160,"name":"Bierhalle Posnania","slug":"bierhalle-posnania","location":{"country":{"name":"Polska","symbol":"pl","slug":"polska"},"coordinates":["16.954274","52.397957"],"city":"Poznań","address":"Pleszewska 1"},"date":"wrzesień 2019"},{"id":207,"name":"Browar Rzemieślniczy Dziedzice","slug":"browar-rzemieslniczy-dziedzice","location":{"country":{"name":"Polska","symbol":"pl","slug":"polska"},"coordinates":["18.997105","49.911325"],"city":"Czechowice-Dziedzice","address":"Legionów 83A"},"date":"lipiec 2020"}],"breweriesCount":9}