{"name":"browar restauracyjny","slug":"browar-restauracyjny","extremes":{"north":"64.153121","east":"-21.949361","south":"35.85439","west":"30.595857"},"breweries":[{"id":1,"name":"Spiż Wrocław","slug":"spiz-wroclaw","location":{"country":{"name":"Polska","symbol":"pl","slug":"polska"},"coordinates":["17.031211","51.109934"],"city":"Wrocław","address":"Ratusz 2"},"date":"wrzesień 2011"},{"id":2,"name":"Bierhalle Arkadia","slug":"bierhalle-arkadia","location":{"country":{"name":"Polska","symbol":"pl","slug":"polska"},"coordinates":["20.984165","52.256166"],"city":"Warszawa","address":"al. Jana Pawła II 82"},"date":"maj 2012"},{"id":3,"name":"Brovarnia Gdańsk","slug":"brovarnia-gdansk","location":{"country":{"name":"Polska","symbol":"pl","slug":"polska"},"coordinates":["18.660396","54.349342"],"city":"Gdańsk","address":"Szafarnia 9"},"date":"sierpień 2013"},{"id":4,"name":"Browar Widawa","slug":"browar-widawa","location":{"country":{"name":"Polska","symbol":"pl","slug":"polska"},"coordinates":["17.284356","51.083917"],"city":"Chrząstawa Mała","address":"Wrocławska 97"},"date":"czerwiec 2014"},{"id":5,"name":"1516 Brewing Company","slug":"1516-brewing-company","location":{"country":{"name":"Austria","symbol":"at","slug":"austria"},"coordinates":["16.373066","48.203395"],"city":"Wien","address":"Schwarzenbergstraße 2"},"date":"grudzień 2014"},{"id":6,"name":"Lichtenthaler Bräu","slug":"lichtenthaler-brau","location":{"country":{"name":"Austria","symbol":"at","slug":"austria"},"coordinates":["16.356550","48.230206"],"city":"Wien","address":"Liechtensteinstraße 108"},"date":"grudzień 2014"},{"id":7,"name":"Browar Stu Mostów","slug":"browar-stu-mostow","location":{"country":{"name":"Polska","symbol":"pl","slug":"polska"},"coordinates":["17.059509","51.131720"],"city":"Wrocław","address":"Jana Długosza 2"},"date":"grudzień 2014"},{"id":10,"name":"Pivovarská Bašta","slug":"pivovarska-basta","location":{"country":{"name":"Czechy","symbol":"cz","slug":"czechy"},"coordinates":["15.608565","50.642908"],"city":"Vrchlabí","address":"Horská 198"},"date":"maj 2015"},{"id":11,"name":"Pivovar Hendrych","slug":"pivovar-hendrych","location":{"country":{"name":"Czechy","symbol":"cz","slug":"czechy"},"coordinates":["15.603281","50.654901"],"city":"Vrchlabí","address":"Horská 192"},"date":"maj 2015"},{"id":12,"name":"Minipivovar Friesovy Boudy","slug":"minipivovar-friesovy-boudy","location":{"country":{"name":"Czechy","symbol":"cz","slug":"czechy"},"coordinates":["15.651431","50.700016"],"city":"Strážné","address":"Strážné 96"},"date":"maj 2015"},{"id":13,"name":"Browar Miedzianka","slug":"browar-miedzianka","location":{"country":{"name":"Polska","symbol":"pl","slug":"polska"},"coordinates":["15.939254","50.877754"],"city":"Miedzianka","address":"Miedzianka 57b"},"date":"maj 2015"},{"id":14,"name":"Bierhalle Łódź","slug":"bierhalle-lodz","location":{"country":{"name":"Polska","symbol":"pl","slug":"polska"},"coordinates":["19.446765","51.780448"],"city":"Łódź","address":"Drewnowska 58"},"date":"lipiec 2015"},{"id":15,"name":"Tirana Bräuhaus","slug":"tirana-brauhaus","location":{"country":{"name":"Albania","symbol":"al","slug":"albania"},"coordinates":["19.816784","41.323776"],"city":"Tirana","address":"Reshit Çollaku 38"},"date":"wrzesień 2015"},{"id":17,"name":"Jamrozowa Polana","slug":"jamrozowa-polana","location":{"country":{"name":"Polska","symbol":"pl","slug":"polska"},"coordinates":["16.369122","50.387856"],"city":"Duszniki-Zdrój","address":"Olimpijska 1"},"date":"październik 2015"},{"id":19,"name":"Pivovárek Dobruška","slug":"pivovarek-dobruska","location":{"country":{"name":"Czechy","symbol":"cz","slug":"czechy"},"coordinates":["16.162780","50.294666"],"city":"Dobruška","address":"Křovická 267"},"date":"październik 2015"},{"id":20,"name":"Pivovar Rychnov nad Kněžnou","slug":"pivovar-rychnov-nad-kneznou","location":{"country":{"name":"Czechy","symbol":"cz","slug":"czechy"},"coordinates":["16.278665","50.171188"],"city":"Rychnov nad Kněžnou","address":"Kaštany 435"},"date":"październik 2015"},{"id":21,"name":"Pivovar Clock","slug":"pivovar-clock","location":{"country":{"name":"Czechy","symbol":"cz","slug":"czechy"},"coordinates":["16.307572","50.082229"],"city":"Potštejn","address":"Školní 2"},"date":"październik 2015"},{"id":22,"name":"Minipivovar Žamberk Kanec","slug":"minipivovar-zamberk-kanec","location":{"country":{"name":"Czechy","symbol":"cz","slug":"czechy"},"coordinates":["16.460829","50.087102"],"city":"Žamberk","address":"Československé armády 1400"},"date":"październik 2015"},{"id":24,"name":"Brovaria","slug":"brovaria","location":{"country":{"name":"Polska","symbol":"pl","slug":"polska"},"coordinates":["16.932367","52.408013"],"city":"Poznań","address":"Stary Rynek 73-74"},"date":"listopad 2015"},{"id":26,"name":"Browar Wiatr","slug":"browar-wiatr","location":{"country":{"name":"Polska","symbol":"pl","slug":"polska"},"coordinates":["18.795629","51.979154"],"city":"Uniejów","address":"Dąbska 49"},"date":"lipiec 2016"},{"id":27,"name":"Browar Księży Młyn","slug":"browar-ksiezy-mlyn","location":{"country":{"name":"Polska","symbol":"pl","slug":"polska"},"coordinates":["19.476305","51.752514"],"city":"Łódź","address":"Księdza Biskupa Wincentego Tymienieckiego 22\/24"},"date":"lipiec 2016"},{"id":29,"name":"Brauhaus Pirna","slug":"brauhaus-pirna","location":{"country":{"name":"Niemcy","symbol":"de","slug":"niemcy"},"coordinates":["13.942950","50.979910"],"city":"Pirna","address":"Basteistraße 60"},"date":"sierpień 2016"},{"id":30,"name":"Schloßbrauerei Weesenstein","slug":"schlossbrauerei-weesenstein","location":{"country":{"name":"Niemcy","symbol":"de","slug":"niemcy"},"coordinates":["13.860080","50.932620"],"city":"Müglitztal","address":"Am Schloßberg 1"},"date":"sierpień 2016"},{"id":31,"name":"Brauhaus Weltenbummler","slug":"brauhaus-weltenbummler","location":{"country":{"name":"Niemcy","symbol":"de","slug":"niemcy"},"coordinates":["13.946138","50.873514"],"city":"Berggiesshübel","address":"Sebastian-Kneipp-Straße 6"},"date":"sierpień 2016"},{"id":33,"name":"Minipivovar Labuť","slug":"minipivovar-labut","location":{"country":{"name":"Czechy","symbol":"cz","slug":"czechy"},"coordinates":["14.127025","50.537522"],"city":"Litoměřice","address":"Zítkova 784\/5"},"date":"sierpień 2016"},{"id":34,"name":"Biskupský pivovar u sv. Štěpána","slug":"biskupsky-pivovar-u-sv-stepana","location":{"country":{"name":"Czechy","symbol":"cz","slug":"czechy"},"coordinates":["14.153247","50.536656"],"city":"Litoměřice","address":"Komenského 748\/4"},"date":"sierpień 2016"},{"id":36,"name":"Na Rychtě","slug":"na-rychte","location":{"country":{"name":"Czechy","symbol":"cz","slug":"czechy"},"coordinates":["14.041992","50.659741"],"city":"Ústí nad Labem","address":"Klášterní 75\/9"},"date":"sierpień 2016"},{"id":37,"name":"Centrum Pivovar","slug":"centrum-pivovar","location":{"country":{"name":"Czechy","symbol":"cz","slug":"czechy"},"coordinates":["14.193125","50.772446"],"city":"Děčín","address":"Sofijská 2\/3"},"date":"sierpień 2016"},{"id":38,"name":"Pivovar Kotouč","slug":"pivovar-kotouc","location":{"country":{"name":"Czechy","symbol":"cz","slug":"czechy"},"coordinates":["14.414845","50.798033"],"city":"Česká Kamenice","address":"Pivovarská 3"},"date":"sierpień 2016"},{"id":40,"name":"Pivovar Cvikov","slug":"pivovar-cvikov","location":{"country":{"name":"Czechy","symbol":"cz","slug":"czechy"},"coordinates":["14.642248","50.776766"],"city":"Cvikov","address":"Pivovarská 405"},"date":"sierpień 2016"},{"id":42,"name":"Browar Restauracyjny Złoty Róg","slug":"browar-restauracyjny-zloty-rog","location":{"country":{"name":"Polska","symbol":"pl","slug":"polska"},"coordinates":["18.087480","51.760567"],"city":"Kalisz","address":"Aleja Wolności 3"},"date":"sierpień 2016"},{"id":49,"name":"C.K. Browar","slug":"ck-browar","location":{"country":{"name":"Polska","symbol":"pl","slug":"polska"},"coordinates":["19.932708","50.063393"],"city":"Kraków","address":"Podwale 6"},"date":"wrzesień 2016"},{"id":50,"name":"Browar Lubicz","slug":"browar-lubicz","location":{"country":{"name":"Polska","symbol":"pl","slug":"polska"},"coordinates":["19.949279","50.064464"],"city":"Kraków","address":"Lubicz 17J"},"date":"wrzesień 2016"},{"id":51,"name":"TEA Time Brewpub","slug":"tea-time-brewpub","location":{"country":{"name":"Polska","symbol":"pl","slug":"polska"},"coordinates":["19.936604","50.050066"],"city":"Kraków","address":"Dietla 1"},"date":"wrzesień 2016"},{"id":52,"name":"Stara Zajezdnia Kraków by DeSilva","slug":"stara-zajezdnia-krakow-by-desilva","location":{"country":{"name":"Polska","symbol":"pl","slug":"polska"},"coordinates":["19.947116","50.050119"],"city":"Kraków","address":"Świętego Wawrzyńca 12"},"date":"wrzesień 2016"},{"id":53,"name":"CTKiR Browar Probus","slug":"ctkir-browar-probus","location":{"country":{"name":"Polska","symbol":"pl","slug":"polska"},"coordinates":["17.301456","50.941937"],"city":"Oława","address":"Młyńska 16"},"date":"październik 2016"},{"id":54,"name":"Browar Prost","slug":"browar-prost","location":{"country":{"name":"Polska","symbol":"pl","slug":"polska"},"coordinates":["17.022977","51.150793"],"city":"Wrocław","address":"Paprotna 4"},"date":"październik 2016"},{"id":55,"name":"Browar Złoty Pies","slug":"browar-zloty-pies","location":{"country":{"name":"Polska","symbol":"pl","slug":"polska"},"coordinates":["17.033595","51.110382"],"city":"Wrocław","address":"Rynek 41"},"date":"październik 2016"},{"id":57,"name":"Ułan Browar","slug":"ulan-browar","location":{"country":{"name":"Polska","symbol":"pl","slug":"polska"},"coordinates":["16.895479","52.399243"],"city":"Poznań","address":"Stanisława Wyspiańskiego 26"},"date":"listopad 2016"},{"id":58,"name":"Salm Bräu","slug":"salm-brau","location":{"country":{"name":"Austria","symbol":"at","slug":"austria"},"coordinates":["16.380866","48.196656"],"city":"Wien","address":"Rennweg 8"},"date":"listopad 2016"},{"id":59,"name":"Hackl Bräu","slug":"hackl-brau","location":{"country":{"name":"Austria","symbol":"at","slug":"austria"},"coordinates":["16.356069","48.191933"],"city":"Wien","address":"Reznicekgasse 3"},"date":"listopad 2016"},{"id":61,"name":"Brauwerk Wien","slug":"brauwerk-wien","location":{"country":{"name":"Austria","symbol":"at","slug":"austria"},"coordinates":["16.324822","48.212931"],"city":"Wien","address":"Ottakringer Pl. 1"},"date":"listopad 2016"},{"id":62,"name":"Stiegl-Ambulanz","slug":"stiegl-ambulanz","location":{"country":{"name":"Austria","symbol":"at","slug":"austria"},"coordinates":["16.352157","48.216479"],"city":"Wien","address":"Alser Str. 4"},"date":"listopad 2016"},{"id":63,"name":"7Sternbräu","slug":"7sternbrau","location":{"country":{"name":"Austria","symbol":"at","slug":"austria"},"coordinates":["16.353532","48.202180"],"city":"Wien","address":"Siebensterngasse 19"},"date":"listopad 2016"},{"id":64,"name":"Highlander","slug":"highlander","location":{"country":{"name":"Austria","symbol":"at","slug":"austria"},"coordinates":["16.353487","48.226919"],"city":"Wien","address":"Sobieskipl. 4"},"date":"listopad 2016"},{"id":65,"name":"Fischerbräu","slug":"fischerbrau","location":{"country":{"name":"Austria","symbol":"at","slug":"austria"},"coordinates":["16.350767","48.234745"],"city":"Wien","address":"Billrothstraße 17"},"date":"listopad 2016"},{"id":67,"name":"Wasserschloss Mellenthin","slug":"wasserschloss-mellenthin","location":{"country":{"name":"Niemcy","symbol":"de","slug":"niemcy"},"coordinates":["14.016687","53.924117"],"city":"Mellenthin","address":"Schloßallee 5"},"date":"czerwiec 2017"},{"id":68,"name":"Usedomer Brauhaus","slug":"usedomer-brauhaus","location":{"country":{"name":"Niemcy","symbol":"de","slug":"niemcy"},"coordinates":["14.166097","53.955741"],"city":"Heringsdorf","address":"Friedensplatz"},"date":"czerwiec 2017"},{"id":69,"name":"Legnicki Browar Książecy","slug":"legnicki-browar-ksiazecy","location":{"country":{"name":"Polska","symbol":"pl","slug":"polska"},"coordinates":["16.168097","51.212250"],"city":"Legnica","address":"Dworcowa 9"},"date":"czerwiec 2017"},{"id":70,"name":"Browar Turek","slug":"browar-turek","location":{"country":{"name":"Polska","symbol":"pl","slug":"polska"},"coordinates":["18.525900","52.014492"],"city":"Turek","address":"aleja NSZZ Solidarność 37"},"date":"lipiec 2017"},{"id":71,"name":"Pivovárek na Kopečku","slug":"pivovarek-na-kopecku","location":{"country":{"name":"Czechy","symbol":"cz","slug":"czechy"},"coordinates":["16.460646","49.752344"],"city":"Svitavy","address":"Radiměřská 5a"},"date":"lipiec 2017"},{"id":72,"name":"Beaver Brewing Company","slug":"beaver-brewing-company","location":{"country":{"name":"Austria","symbol":"at","slug":"austria"},"coordinates":["16.356967","48.224593"],"city":"Wien","address":"Liechtensteinstraße 69"},"date":"lipiec 2017"},{"id":73,"name":"Birrificio Cavana","slug":"birrificio-cavana","location":{"country":{"name":"Włochy","symbol":"it","slug":"wlochy"},"coordinates":["13.766490","45.648619"],"city":"Trieste","address":"Via della Pescheria 18"},"date":"lipiec 2017"},{"id":74,"name":"Birrificio Tazebao","slug":"birrificio-tazebao","location":{"country":{"name":"Włochy","symbol":"it","slug":"wlochy"},"coordinates":["13.781947","45.634730"],"city":"Trieste","address":"Via Lorenzo Lorenzetti 9"},"date":"lipiec 2017"},{"id":75,"name":"BEFeD Fiumicello","slug":"befed-fiumicello","location":{"country":{"name":"Włochy","symbol":"it","slug":"wlochy"},"coordinates":["13.406927","45.771247"],"city":"Fiumicello","address":"Via S. Lorenzo 65"},"date":"lipiec 2017"},{"id":76,"name":"Pivovarna Zupanič","slug":"pivovarna-zupanic","location":{"country":{"name":"Słowenia","symbol":"si","slug":"slowenia"},"coordinates":["15.683892","46.540247"],"city":"Maribor","address":"Dupleška cesta 34a"},"date":"lipiec 2017"},{"id":77,"name":"Browar Słociak","slug":"browar-slociak","location":{"country":{"name":"Polska","symbol":"pl","slug":"polska"},"coordinates":["17.877319","50.697620"],"city":"Opole","address":"Księżycowa 2A"},"date":"wrzesień 2017"},{"id":79,"name":"Obermühle Brauhaus","slug":"obermuhle-brauhaus","location":{"country":{"name":"Niemcy","symbol":"de","slug":"niemcy"},"coordinates":["14.994513","51.143985"],"city":"Görlitz","address":"An der Obermühle 5"},"date":"marzec 2018"},{"id":80,"name":"Browar Jedlinka","slug":"browar-jedlinka","location":{"country":{"name":"Polska","symbol":"pl","slug":"polska"},"coordinates":["16.358363","50.713068"],"city":"Jedlina-Zdrój","address":"Zamkowa 3"},"date":"maj 2018"},{"id":82,"name":"Browar Miedziowy 44","slug":"browar-miedziowy-44","location":{"country":{"name":"Polska","symbol":"pl","slug":"polska"},"coordinates":["14.263898","53.917795"],"city":"Świnoujście","address":"Uzdrowiskowa 15"},"date":"czerwiec 2018"},{"id":83,"name":"U Černého Medvěda","slug":"u-cerneho-medveda","location":{"country":{"name":"Czechy","symbol":"cz","slug":"czechy"},"coordinates":["16.600025","50.030091"],"city":"Jablonné nad Orlicí","address":"5. května 24"},"date":"lipiec 2018"},{"id":84,"name":"Minipivovar U Jirsáka","slug":"minipivovar-u-jirsaka","location":{"country":{"name":"Czechy","symbol":"cz","slug":"czechy"},"coordinates":["17.001775","49.967264"],"city":"Vikýřovice","address":"Šumperská 128"},"date":"lipiec 2018"},{"id":85,"name":"Minipivovar Zlosin","slug":"minipivovar-zlosin","location":{"country":{"name":"Czechy","symbol":"cz","slug":"czechy"},"coordinates":["17.027992","50.033608"],"city":"Velké Losiny","address":"Žárovská 10"},"date":"lipiec 2018"},{"id":89,"name":"Sieradzki Browar Restauracyjny Pompa","slug":"sieradzki-browar-restauracyjny-pompa","location":{"country":{"name":"Polska","symbol":"pl","slug":"polska"},"coordinates":["18.737615","51.594687"],"city":"Sieradz","address":"Rynek 17"},"date":"sierpień 2018"},{"id":91,"name":"Jan Olbracht Browar Staromiejski","slug":"jan-olbracht-browar-staromiejski","location":{"country":{"name":"Polska","symbol":"pl","slug":"polska"},"coordinates":["18.605791","53.011100"],"city":"Toruń","address":"Szczytna 15"},"date":"wrzesień 2018"},{"id":95,"name":"Brouwerij Homeland","slug":"brouwerij-homeland","location":{"country":{"name":"Holandia","symbol":"nl","slug":"holandia"},"coordinates":["4.916755","52.373034"],"city":"Amsterdam","address":"Kattenburgerstraat 5"},"date":"listopad 2018"},{"id":99,"name":"De Bekeerde Suster","slug":"de-bekeerde-suster","location":{"country":{"name":"Holandia","symbol":"nl","slug":"holandia"},"coordinates":["4.899240","52.372070"],"city":"Amsterdam","address":"Kloveniersburgwal 6"},"date":"listopad 2018"},{"id":100,"name":"Brouwerij de Prael (Amsterdam)","slug":"brouwerij-de-prael-amsterdam","location":{"country":{"name":"Holandia","symbol":"nl","slug":"holandia"},"coordinates":["4.899736","52.375484"],"city":"Amsterdam","address":"Oudezijds Armsteeg 20"},"date":"listopad 2018"},{"id":101,"name":"Bierfabriek Amsterdam","slug":"bierfabriek-amsterdam","location":{"country":{"name":"Holandia","symbol":"nl","slug":"holandia"},"coordinates":["4.893586","52.370059"],"city":"Amsterdam","address":"Nes 67"},"date":"listopad 2018"},{"id":102,"name":"Poesiat & Kater","slug":"poesiat-kater","location":{"country":{"name":"Holandia","symbol":"nl","slug":"holandia"},"coordinates":["4.935709","52.357670"],"city":"Amsterdam","address":"Polderweg 648"},"date":"listopad 2018"},{"id":103,"name":"Beerhouse","slug":"beerhouse","location":{"country":{"name":"Estonia","symbol":"ee","slug":"estonia"},"coordinates":["24.743865","59.436893"],"city":"Tallinn","address":"Dunkri 5"},"date":"grudzień 2018"},{"id":104,"name":"Koch Pruulikoda","slug":"koch-pruulikoda","location":{"country":{"name":"Estonia","symbol":"ee","slug":"estonia"},"coordinates":["24.765466","59.442020"],"city":"Tallinn","address":"Lootsi 10"},"date":"grudzień 2018"},{"id":106,"name":"Browar Zielone Wzgórze","slug":"browar-zielone-wzgorze","location":{"country":{"name":"Polska","symbol":"pl","slug":"polska"},"coordinates":["16.735107","50.845959"],"city":"Sulistrowiczki","address":"Parkowa 3"},"date":"grudzień 2018"},{"id":108,"name":"Ресторан-пивоварня Кумпель","slug":"restoran-pivovarnya-kumpel","location":{"country":{"name":"Ukraina","symbol":"ua","slug":"ukraina"},"coordinates":["24.036136","49.839288"],"city":"Львів","address":"Вынныченка 6"},"date":"kwiecień 2019"},{"id":109,"name":"Чеська пивоварня Старгород","slug":"ceska-pivovarnya-stargorod","location":{"country":{"name":"Ukraina","symbol":"ua","slug":"ukraina"},"coordinates":["24.037532","49.839396"],"city":"Львів","address":"Республиканская 1"},"date":"kwiecień 2019"},{"id":112,"name":"Театр пива Правда","slug":"teatr-piva-pravda","location":{"country":{"name":"Ukraina","symbol":"ua","slug":"ukraina"},"coordinates":["24.030382","49.842030"],"city":"Львів","address":"Ринок 32"},"date":"kwiecień 2019"},{"id":113,"name":"Королівська Пивоварня","slug":"korolivska-pivovarnya","location":{"country":{"name":"Ukraina","symbol":"ua","slug":"ukraina"},"coordinates":["24.032198","49.840609"],"city":"Львів","address":"Староєврейська 9"},"date":"kwiecień 2019"},{"id":115,"name":"Brauhaus am Waldschlösschen","slug":"brauhaus-am-waldschlosschen","location":{"country":{"name":"Niemcy","symbol":"de","slug":"niemcy"},"coordinates":["13.778064","51.067905"],"city":"Dresden","address":"Am Brauhaus 8B"},"date":"maj 2019"},{"id":117,"name":"Ball & Brauhaus Watzke","slug":"ball-brauhaus-watzke","location":{"country":{"name":"Niemcy","symbol":"de","slug":"niemcy"},"coordinates":["13.715799","51.077546"],"city":"Dresden","address":"Kötzschenbroder Str. 1"},"date":"maj 2019"},{"id":119,"name":"Bautzener Brauhaus","slug":"bautzener-brauhaus","location":{"country":{"name":"Niemcy","symbol":"de","slug":"niemcy"},"coordinates":["14.439666","51.179811"],"city":"Bautzen","address":"Thomas-Mann-Straße 7"},"date":"maj 2019"},{"id":120,"name":"Browar Brewicz","slug":"browar-brewicz","location":{"country":{"name":"Polska","symbol":"pl","slug":"polska"},"coordinates":["16.869328","51.613867"],"city":"Rawicz","address":"Armii Krajowej 4"},"date":"maj 2019"},{"id":121,"name":"Birrbante","slug":"birrbante","location":{"country":{"name":"Włochy","symbol":"it","slug":"wlochy"},"coordinates":["16.844995","41.100290"],"city":"Bari","address":"Via Marco Partipilo 62"},"date":"czerwiec 2019"},{"id":122,"name":"Birrificio Bilabì","slug":"birrificio-bilabi","location":{"country":{"name":"Włochy","symbol":"it","slug":"wlochy"},"coordinates":["16.880071","41.105738"],"city":"Bari","address":"Via Adolfo Omodeo 12"},"date":"czerwiec 2019"},{"id":124,"name":"The Brew","slug":"the-brew","location":{"country":{"name":"Malta","symbol":"mt","slug":"malta"},"coordinates":["14.501739","35.908412"],"city":"Tas-Sliema","address":"The Strand 74"},"date":"czerwiec 2019"},{"id":125,"name":"Brauerei Montekristo","slug":"brauerei-montekristo","location":{"country":{"name":"Malta","symbol":"mt","slug":"malta"},"coordinates":["14.461659","35.854390"],"city":"Ħal Luqa","address":"Triq Ħal Farruġ"},"date":"czerwiec 2019"},{"id":127,"name":"Salio Browar & Restauracja","slug":"salio-browar-restauracja","location":{"country":{"name":"Polska","symbol":"pl","slug":"polska"},"coordinates":["19.511639","51.952939"],"city":"Besiekierz Rudny","address":"Besiekierz Rudny 50"},"date":"lipiec 2019"},{"id":128,"name":"Klubopiwiarnia Warkot","slug":"klubopiwiarnia-warkot","location":{"country":{"name":"Polska","symbol":"pl","slug":"polska"},"coordinates":["19.458399","51.770301"],"city":"Łódź","address":"Narutowicza 7\/9"},"date":"lipiec 2019"},{"id":129,"name":"Портер Паб (Хрещатик)","slug":"porter-pab-xreshhatik","location":{"country":{"name":"Ukraina","symbol":"ua","slug":"ukraina"},"coordinates":["30.523882","50.447535"],"city":"Київ","address":"вул. Хрещатик, 15\/4"},"date":"lipiec 2019"},{"id":130,"name":"Шато Robert Doms","slug":"sato-robert-doms","location":{"country":{"name":"Ukraina","symbol":"ua","slug":"ukraina"},"coordinates":["30.522006","50.448288"],"city":"Київ","address":"вул. Хрещатик, 24"},"date":"lipiec 2019"},{"id":131,"name":"Арена Beer House","slug":"arena-beer-house","location":{"country":{"name":"Ukraina","symbol":"ua","slug":"ukraina"},"coordinates":["30.521249","50.441513"],"city":"Київ","address":"вул. Басейна, 2а"},"date":"lipiec 2019"},{"id":132,"name":"Пиваріум","slug":"pivarium","location":{"country":{"name":"Ukraina","symbol":"ua","slug":"ukraina"},"coordinates":["30.468369","50.450462"],"city":"Київ","address":"проспект Перемоги, 31"},"date":"lipiec 2019"},{"id":133,"name":"Фрау Роза","slug":"frau-roza","location":{"country":{"name":"Ukraina","symbol":"ua","slug":"ukraina"},"coordinates":["30.490120","50.435749"],"city":"Київ","address":"вул. Василя Липківського, 1А"},"date":"lipiec 2019"},{"id":134,"name":"Портер Паб (Костянтинівська)","slug":"porter-pab-kostyantinivska","location":{"country":{"name":"Ukraina","symbol":"ua","slug":"ukraina"},"coordinates":["30.515671","50.465303"],"city":"Київ","address":"вул. Костянтинівська, 2А"},"date":"lipiec 2019"},{"id":135,"name":"Ресторан-Паб Проходимецъ","slug":"restoran-pab-proxodimec","location":{"country":{"name":"Ukraina","symbol":"ua","slug":"ukraina"},"coordinates":["30.508435","50.468964"],"city":"Київ","address":"вул. Костянтинівська, 37"},"date":"lipiec 2019"},{"id":136,"name":"Літпаб Крапка Кома","slug":"litpab-krapka-koma","location":{"country":{"name":"Ukraina","symbol":"ua","slug":"ukraina"},"coordinates":["30.513223","50.437960"],"city":"Київ","address":"вул. Антоновича, 14"},"date":"lipiec 2019"},{"id":137,"name":"To Dublin","slug":"to-dublin","location":{"country":{"name":"Ukraina","symbol":"ua","slug":"ukraina"},"coordinates":["30.595857","50.449775"],"city":"Київ","address":"вул. Раїси Окіпної, 4"},"date":"lipiec 2019"},{"id":138,"name":"Синдикат","slug":"sindikat","location":{"country":{"name":"Ukraina","symbol":"ua","slug":"ukraina"},"coordinates":["30.548349","50.439544"],"city":"Київ","address":"вул. Михайла Омеляновича-Павленка, 6"},"date":"lipiec 2019"},{"id":139,"name":"Броварня Шульц","slug":"brovarnya-sulc","location":{"country":{"name":"Ukraina","symbol":"ua","slug":"ukraina"},"coordinates":["30.491302","50.446478"],"city":"Київ","address":"площа Перемоги, 3"},"date":"lipiec 2019"},{"id":140,"name":"Svatováclavský Pivovar","slug":"svatovaclavsky-pivovar","location":{"country":{"name":"Czechy","symbol":"cz","slug":"czechy"},"coordinates":["17.258709","49.595876"],"city":"Olomouc","address":"Mariánská 845\/4"},"date":"sierpień 2019"},{"id":141,"name":"Hostinský pivovar Moritz","slug":"hostinsky-pivovar-moritz","location":{"country":{"name":"Czechy","symbol":"cz","slug":"czechy"},"coordinates":["17.249779","49.590624"],"city":"Olomouc","address":"Nešverova 2"},"date":"sierpień 2019"},{"id":142,"name":"Pivovar Chomout","slug":"pivovar-chomout","location":{"country":{"name":"Czechy","symbol":"cz","slug":"czechy"},"coordinates":["17.231346","49.641736"],"city":"Olomouc","address":"Dalimilova 18\/92"},"date":"sierpień 2019"},{"id":143,"name":"Pivovar Welzl","slug":"pivovar-welzl","location":{"country":{"name":"Czechy","symbol":"cz","slug":"czechy"},"coordinates":["16.861102","49.887987"],"city":"Zábřeh","address":"Krumpach 2057\/24A"},"date":"sierpień 2019"},{"id":145,"name":"Brauerei Fässla","slug":"brauerei-fassla","location":{"country":{"name":"Niemcy","symbol":"de","slug":"niemcy"},"coordinates":["10.892787","49.897242"],"city":"Bamberg","address":"Obere Königstraße 19-21"},"date":"sierpień 2019"},{"id":146,"name":"Brauerei Spezial","slug":"brauerei-spezial","location":{"country":{"name":"Niemcy","symbol":"de","slug":"niemcy"},"coordinates":["10.892811","49.896867"],"city":"Bamberg","address":"Obere Königstraße 10"},"date":"sierpień 2019"},{"id":147,"name":"Schlenkerla, die historische Rauchbierbrauerei","slug":"schlenkerla-die-historische-rauchbierbrauerei","location":{"country":{"name":"Niemcy","symbol":"de","slug":"niemcy"},"coordinates":["10.884921","49.891714"],"city":"Bamberg","address":"Dominikanerstraße 6"},"date":"sierpień 2019"},{"id":150,"name":"Brauerei zum Rossknecht","slug":"brauerei-zum-rossknecht","location":{"country":{"name":"Niemcy","symbol":"de","slug":"niemcy"},"coordinates":["9.188823","48.899164"],"city":"Ludwigsburg","address":"Reithauspl. 21"},"date":"sierpień 2019"},{"id":151,"name":"Wichtel","slug":"wichtel","location":{"country":{"name":"Niemcy","symbol":"de","slug":"niemcy"},"coordinates":["9.003468","48.690027"],"city":"Böblingen","address":"Wolfgang-Brumme-Allee 55"},"date":"sierpień 2019"},{"id":152,"name":"ÔBrasseur","slug":"obrasseur","location":{"country":{"name":"Francja","symbol":"fr","slug":"francja"},"coordinates":["6.029901","46.240913"],"city":"Saint-Genis-Pouilly","address":"45 Rue de Genève"},"date":"sierpień 2019"},{"id":153,"name":"Brasserie du Molard","slug":"brasserie-du-molard","location":{"country":{"name":"Szwajcaria","symbol":"ch","slug":"szwajcaria"},"coordinates":["6.148065","46.203216"],"city":"Genève","address":"Place du Molard 9"},"date":"sierpień 2019"},{"id":154,"name":"BIERlab","slug":"bierlab","location":{"country":{"name":"Szwajcaria","symbol":"ch","slug":"szwajcaria"},"coordinates":["8.526086","47.372520"],"city":"Zürich","address":"Grüngasse 7"},"date":"sierpień 2019"},{"id":156,"name":"Beer Factory","slug":"beer-factory","location":{"country":{"name":"Czechy","symbol":"cz","slug":"czechy"},"coordinates":["13.377382","49.748889"],"city":"Plzeň","address":"Dominikánská 8"},"date":"sierpień 2019"},{"id":159,"name":"1. Roudenský pivovar","slug":"1-roudensky-pivovar","location":{"country":{"name":"Czechy","symbol":"cz","slug":"czechy"},"coordinates":["13.379986","49.753201"],"city":"Plzeň","address":"Na Roudné 387\/17"},"date":"sierpień 2019"},{"id":160,"name":"Bierhalle Posnania","slug":"bierhalle-posnania","location":{"country":{"name":"Polska","symbol":"pl","slug":"polska"},"coordinates":["16.954274","52.397957"],"city":"Poznań","address":"Pleszewska 1"},"date":"wrzesień 2019"},{"id":161,"name":"Bloomsbury Brewery","slug":"bloomsbury-brewery","location":{"country":{"name":"Wielka Brytania","symbol":"gb","slug":"wielka-brytania"},"coordinates":["-0.118833","51.522247"],"city":"London","address":"63 Lamb's Conduit St"},"date":"wrzesień 2019"},{"id":162,"name":"Essex Street Brewing Company","slug":"essex-street-brewing-company","location":{"country":{"name":"Wielka Brytania","symbol":"gb","slug":"wielka-brytania"},"coordinates":["-0.113029","51.512938"],"city":"London","address":"46 Essex Street"},"date":"wrzesień 2019"},{"id":165,"name":"Hawkes Cidery","slug":"hawkes-cidery","location":{"country":{"name":"Wielka Brytania","symbol":"gb","slug":"wielka-brytania"},"coordinates":["-0.074960","51.499600"],"city":"London","address":"86-92 Druid St"},"date":"wrzesień 2019"},{"id":173,"name":"Meantime Brewing Company","slug":"meantime-brewing-company","location":{"country":{"name":"Wielka Brytania","symbol":"gb","slug":"wielka-brytania"},"coordinates":["0.007872","51.489341"],"city":"London","address":"Lawrence Trading Estate, Blackwall Ln"},"date":"wrzesień 2019"},{"id":174,"name":"BrewDog Tower Hill Outpost","slug":"brewdog-tower-hill-outpost","location":{"country":{"name":"Wielka Brytania","symbol":"gb","slug":"wielka-brytania"},"coordinates":["-0.080747","51.509897"],"city":"London","address":"21 Great Tower St"},"date":"wrzesień 2019"},{"id":175,"name":"Goose Island Brewpub London","slug":"goose-island-brewpub-london","location":{"country":{"name":"Wielka Brytania","symbol":"gb","slug":"wielka-brytania"},"coordinates":["-0.078180","51.522763"],"city":"London","address":"222 Shoreditch High St"},"date":"wrzesień 2019"},{"id":176,"name":"Long Arm Pub & Brewery","slug":"long-arm-pub-brewery","location":{"country":{"name":"Wielka Brytania","symbol":"gb","slug":"wielka-brytania"},"coordinates":["-0.085566","51.521923"],"city":"London","address":"20-26 Worship St"},"date":"wrzesień 2019"},{"id":177,"name":"Fountain Brewhouse","slug":"fountain-brewhouse","location":{"country":{"name":"Wielka Brytania","symbol":"gb","slug":"wielka-brytania"},"coordinates":["-0.088969","51.527013"],"city":"London","address":"3 Baldwin Street"},"date":"wrzesień 2019"},{"id":179,"name":"Bastarður Brew Pub","slug":"bastardur-brew-pub","location":{"country":{"name":"Islandia","symbol":"is","slug":"islandia"},"coordinates":["-21.930740","64.145700"],"city":"Reykjavík","address":"Vegamótastígur 4"},"date":"wrzesień 2019"},{"id":180,"name":"Bryggjan Brugghús","slug":"bryggjan-brugghus","location":{"country":{"name":"Islandia","symbol":"is","slug":"islandia"},"coordinates":["-21.949361","64.153121"],"city":"Reykjavík","address":"Vesturbær"},"date":"wrzesień 2019"},{"id":182,"name":"Nowy Browar Szczecin","slug":"nowy-browar-szczecin","location":{"country":{"name":"Polska","symbol":"pl","slug":"polska"},"coordinates":["14.549771","53.423912"],"city":"Szczecin","address":"Partyzantów 2"},"date":"październik 2019"},{"id":183,"name":"Browar Stara Komenda","slug":"browar-stara-komenda","location":{"country":{"name":"Polska","symbol":"pl","slug":"polska"},"coordinates":["14.551265","53.421644"],"city":"Szczecin","address":"Plac Batorego 3"},"date":"październik 2019"},{"id":184,"name":"Browar rodzinny Wyszak","slug":"browar-rodzinny-wyszak","location":{"country":{"name":"Polska","symbol":"pl","slug":"polska"},"coordinates":["14.560190","53.424335"],"city":"Szczecin","address":"Księcia Mściwoja II 8"},"date":"październik 2019"},{"id":185,"name":"Browar pod Zamkiem","slug":"browar-pod-zamkiem","location":{"country":{"name":"Polska","symbol":"pl","slug":"polska"},"coordinates":["14.561868","53.426094"],"city":"Szczecin","address":"Panieńska 12"},"date":"październik 2019"},{"id":186,"name":"Vesnický Pivovar Ohrada","slug":"vesnicky-pivovar-ohrada","location":{"country":{"name":"Czechy","symbol":"cz","slug":"czechy"},"coordinates":["16.625266","49.533360"],"city":"Vísky","address":"Vísky 100"},"date":"październik 2019"},{"id":187,"name":"Charlie's Square","slug":"charlies-square","location":{"country":{"name":"Czechy","symbol":"cz","slug":"czechy"},"coordinates":["16.611327","49.192723"],"city":"Brno","address":"Františkánská 498\/7"},"date":"październik 2019"},{"id":188,"name":"Minipivovar Pegas","slug":"minipivovar-pegas","location":{"country":{"name":"Czechy","symbol":"cz","slug":"czechy"},"coordinates":["16.607166","49.196222"],"city":"Brno","address":"Jakubská 120\/4"},"date":"październik 2019"},{"id":189,"name":"U Tomana","slug":"u-tomana","location":{"country":{"name":"Czechy","symbol":"cz","slug":"czechy"},"coordinates":["16.607101","49.195189"],"city":"Brno","address":"Svobody 22"},"date":"październik 2019"},{"id":191,"name":"Bratislavský Meštiansky Pivovar (Dunajská)","slug":"bratislavsky-mestiansky-pivovar-dunajska","location":{"country":{"name":"Słowacja","symbol":"sk","slug":"slowacja"},"coordinates":["17.117860","48.145830"],"city":"Bratislava","address":"Dunajská 21"},"date":"październik 2019"},{"id":192,"name":"Mestský pivovar Alžbetka","slug":"mestsky-pivovar-alzbetka","location":{"country":{"name":"Słowacja","symbol":"sk","slug":"slowacja"},"coordinates":["17.114082","48.149447"],"city":"Bratislava","address":"Mickiewiczova 2242\/1"},"date":"październik 2019"},{"id":193,"name":"Starosloviensky pivovar","slug":"starosloviensky-pivovar","location":{"country":{"name":"Słowacja","symbol":"sk","slug":"slowacja"},"coordinates":["17.110637","48.148954"],"city":"Bratislava","address":"Vysoká 4260\/15"},"date":"październik 2019"},{"id":194,"name":"Fabrika, the beer pub","slug":"fabrika-the-beer-pub","location":{"country":{"name":"Słowacja","symbol":"sk","slug":"slowacja"},"coordinates":["17.107180","48.151809"],"city":"Bratislava","address":"Štefánikova 864\/4"},"date":"październik 2019"},{"id":195,"name":"Bratislavský Meštiansky Pivovar (Drevena)","slug":"bratislavsky-mestiansky-pivovar-drevena","location":{"country":{"name":"Słowacja","symbol":"sk","slug":"slowacja"},"coordinates":["17.108149","48.146970"],"city":"Bratislava","address":"Drevena 8"},"date":"październik 2019"},{"id":196,"name":"Kláštorný pivovar","slug":"klastorny-pivovar","location":{"country":{"name":"Słowacja","symbol":"sk","slug":"slowacja"},"coordinates":["17.110072","48.146218"],"city":"Bratislava","address":"Námestie SNP 469\/8"},"date":"październik 2019"},{"id":197,"name":"Dunajský Pivovar","slug":"dunajsky-pivovar","location":{"country":{"name":"Słowacja","symbol":"sk","slug":"slowacja"},"coordinates":["17.112638","48.137207"],"city":"Bratislava","address":"Tyršovo nábrežie"},"date":"październik 2019"},{"id":198,"name":"Pivovar HOPS","slug":"pivovar-hops","location":{"country":{"name":"Słowacja","symbol":"sk","slug":"slowacja"},"coordinates":["17.096923","48.123973"],"city":"Bratislava","address":"Vilová 2995\/4"},"date":"październik 2019"},{"id":199,"name":"Pivovar u Tří králů","slug":"pivovar-u-tri-kralu","location":{"country":{"name":"Czechy","symbol":"cz","slug":"czechy"},"coordinates":["17.088442","49.471997"],"city":"Prostějov","address":"Finská 8"},"date":"październik 2019"},{"id":200,"name":"U krále Ječmínka","slug":"u-krale-jecminka","location":{"country":{"name":"Czechy","symbol":"cz","slug":"czechy"},"coordinates":["17.116604","49.472261"],"city":"Prostějov","address":"Újezd 4a"},"date":"październik 2019"},{"id":201,"name":"Pivovar u Císařské cesty","slug":"pivovar-u-cisarske-cesty","location":{"country":{"name":"Czechy","symbol":"cz","slug":"czechy"},"coordinates":["17.131276","49.492819"],"city":"Držovice","address":"Olomoucká 275\/262"},"date":"październik 2019"},{"id":202,"name":"Sowiduch Browar i Restauracja","slug":"sowiduch-browar-i-restauracja","location":{"country":{"name":"Polska","symbol":"pl","slug":"polska"},"coordinates":["15.755774","50.775112"],"city":"Karpacz","address":"Konstytucji 3-ego Maja 45 A"},"date":"styczeń 2020"},{"id":204,"name":"Anders Browar","slug":"anders-browar","location":{"country":{"name":"Polska","symbol":"pl","slug":"polska"},"coordinates":["17.704686","51.304494"],"city":"Syców","address":"Broniewskiego 33"},"date":"czerwiec 2020"},{"id":205,"name":"Browar Extract","slug":"browar-extract","location":{"country":{"name":"Polska","symbol":"pl","slug":"polska"},"coordinates":["19.804003","50.021129"],"city":"Kraków","address":"Promowa 10"},"date":"lipiec 2020"},{"id":206,"name":"Browar Zadyma","slug":"browar-zadyma","location":{"country":{"name":"Polska","symbol":"pl","slug":"polska"},"coordinates":["20.021332","49.446059"],"city":"Szaflary","address":"Zakopianka 1"},"date":"lipiec 2020"},{"id":207,"name":"Browar Rzemieślniczy Dziedzice","slug":"browar-rzemieslniczy-dziedzice","location":{"country":{"name":"Polska","symbol":"pl","slug":"polska"},"coordinates":["18.997105","49.911325"],"city":"Czechowice-Dziedzice","address":"Legionów 83A"},"date":"lipiec 2020"},{"id":211,"name":"Stadsbrouwerij Eindhoven","slug":"stadsbrouwerij-eindhoven","location":{"country":{"name":"Holandia","symbol":"nl","slug":"holandia"},"coordinates":["5.484798","51.435934"],"city":"Eindhoven","address":"Bleekweg 1"},"date":"wrzesień 2020"},{"id":212,"name":"Brouwerij het Veem","slug":"brouwerij-het-veem","location":{"country":{"name":"Holandia","symbol":"nl","slug":"holandia"},"coordinates":["5.453412","51.448113"],"city":"Eindhoven","address":"Torenallee 86"},"date":"wrzesień 2020"},{"id":214,"name":"LOC Brewery","slug":"loc-brewery","location":{"country":{"name":"Holandia","symbol":"nl","slug":"holandia"},"coordinates":["5.088301","51.561119"],"city":"Tilburg","address":"Burgemeester Brokxlaan 8-84"},"date":"wrzesień 2020"},{"id":216,"name":"Stadsbrouwerij Torens Tilburg","slug":"stadsbrouwerij-torens-tilburg","location":{"country":{"name":"Holandia","symbol":"nl","slug":"holandia"},"coordinates":["5.094080","51.552748"],"city":"Tilburg","address":"Piushaven 22"},"date":"wrzesień 2020"},{"id":217,"name":"Stadsbrouwerij 013","slug":"stadsbrouwerij-013","location":{"country":{"name":"Holandia","symbol":"nl","slug":"holandia"},"coordinates":["5.097878","51.552886"],"city":"Tilburg","address":"Piushaven 1"},"date":"wrzesień 2020"},{"id":218,"name":"Brouwerij De Beyerd","slug":"brouwerij-de-beyerd","location":{"country":{"name":"Holandia","symbol":"nl","slug":"holandia"},"coordinates":["4.781521","51.589822"],"city":"Breda","address":"Boschstraat 26"},"date":"wrzesień 2020"},{"id":219,"name":"Brouwerij Sint Joris","slug":"brouwerij-sint-joris","location":{"country":{"name":"Holandia","symbol":"nl","slug":"holandia"},"coordinates":["4.776171","51.587985"],"city":"Breda","address":"Grote Markt 19"},"date":"wrzesień 2020"},{"id":220,"name":"Brouwerij Noordt","slug":"brouwerij-noordt","location":{"country":{"name":"Holandia","symbol":"nl","slug":"holandia"},"coordinates":["4.486656","51.933412"],"city":"Rotterdam","address":"Zaagmolenkade 46"},"date":"wrzesień 2020"},{"id":221,"name":"De Gele Kanarie","slug":"de-gele-kanarie","location":{"country":{"name":"Holandia","symbol":"nl","slug":"holandia"},"coordinates":["4.489479","51.924151"],"city":"Rotterdam","address":"Goudsesingel 284"},"date":"wrzesień 2020"},{"id":222,"name":"BrewDog Rotterdam Outpost","slug":"brewdog-rotterdam-outpost","location":{"country":{"name":"Holandia","symbol":"nl","slug":"holandia"},"coordinates":["4.481001","51.922840"],"city":"Rotterdam","address":"Halvemaanpassage 1"},"date":"wrzesień 2020"},{"id":223,"name":"Stadsbrouwerij De Pelgrim","slug":"stadsbrouwerij-de-pelgrim","location":{"country":{"name":"Holandia","symbol":"nl","slug":"holandia"},"coordinates":["4.448888","51.908807"],"city":"Rotterdam","address":"Aelbrechtskolk 12"},"date":"wrzesień 2020"},{"id":225,"name":"Bierbarry","slug":"bierbarry","location":{"country":{"name":"Holandia","symbol":"nl","slug":"holandia"},"coordinates":["4.304995","52.078457"],"city":"Den Haag","address":"Torenstraat 49"},"date":"wrzesień 2020"},{"id":226,"name":"Brouwerij Van Kinsbergen","slug":"brouwerij-van-kinsbergen","location":{"country":{"name":"Holandia","symbol":"nl","slug":"holandia"},"coordinates":["4.294341","52.081999"],"city":"Den Haag","address":"Prins Hendrikplein 15"},"date":"wrzesień 2020"},{"id":227,"name":"Animal Army Brewery","slug":"animal-army-brewery","location":{"country":{"name":"Holandia","symbol":"nl","slug":"holandia"},"coordinates":["4.307611","52.076981"],"city":"Den Haag","address":"Riviervismarkt 1"},"date":"wrzesień 2020"},{"id":231,"name":"Oproer Brouwerij","slug":"oproer-brouwerij","location":{"country":{"name":"Holandia","symbol":"nl","slug":"holandia"},"coordinates":["5.089427","52.102090"],"city":"Utrecht","address":"CAB-Rondom 90A"},"date":"wrzesień 2020"},{"id":236,"name":"Browar Kamienica","slug":"browar-kamienica","location":{"country":{"name":"Polska","symbol":"pl","slug":"polska"},"coordinates":["16.886815","50.251585"],"city":"Kamienica","address":"Kamienica 1a"},"date":"luty 2021"},{"id":238,"name":"Browar Brzeg","slug":"browar-brzeg","location":{"country":{"name":"Polska","symbol":"pl","slug":"polska"},"coordinates":["17.464393","50.863125"],"city":"Brzeg","address":"Wrocławska 5"},"date":"kwiecień 2021"}],"breweriesCount":164}