{"name":"dolnośląski browar","slug":"dolnoslaski-browar","extremes":{"north":"51.322647","east":"15.584204","south":"50.387856","west":"17.704686"},"breweries":[{"id":1,"name":"Spiż Wrocław","slug":"spiz-wroclaw","location":{"country":{"name":"Polska","symbol":"pl","slug":"polska"},"coordinates":["17.031211","51.109934"],"city":"Wrocław","address":"Ratusz 2"},"date":"wrzesień 2011"},{"id":4,"name":"Browar Widawa","slug":"browar-widawa","location":{"country":{"name":"Polska","symbol":"pl","slug":"polska"},"coordinates":["17.284356","51.083917"],"city":"Chrząstawa Mała","address":"Wrocławska 97"},"date":"czerwiec 2014"},{"id":7,"name":"Browar Stu Mostów","slug":"browar-stu-mostow","location":{"country":{"name":"Polska","symbol":"pl","slug":"polska"},"coordinates":["17.059509","51.131720"],"city":"Wrocław","address":"Jana Długosza 2"},"date":"grudzień 2014"},{"id":13,"name":"Browar Miedzianka","slug":"browar-miedzianka","location":{"country":{"name":"Polska","symbol":"pl","slug":"polska"},"coordinates":["15.939254","50.877754"],"city":"Miedzianka","address":"Miedzianka 57b"},"date":"maj 2015"},{"id":17,"name":"Jamrozowa Polana","slug":"jamrozowa-polana","location":{"country":{"name":"Polska","symbol":"pl","slug":"polska"},"coordinates":["16.369122","50.387856"],"city":"Duszniki-Zdrój","address":"Olimpijska 1"},"date":"październik 2015"},{"id":23,"name":"Browar Profesja","slug":"browar-profesja","location":{"country":{"name":"Polska","symbol":"pl","slug":"polska"},"coordinates":["17.092478","51.130970"],"city":"Wrocław","address":"Kwidzyńska 6E"},"date":"październik 2015"},{"id":25,"name":"Browar Roch","slug":"browar-roch","location":{"country":{"name":"Polska","symbol":"pl","slug":"polska"},"coordinates":["16.039856","50.940760"],"city":"Nowe Rochowice","address":"Nowe Rochowice 22"},"date":"maj 2016"},{"id":53,"name":"CTKiR Browar Probus","slug":"ctkir-browar-probus","location":{"country":{"name":"Polska","symbol":"pl","slug":"polska"},"coordinates":["17.301456","50.941937"],"city":"Oława","address":"Młyńska 16"},"date":"październik 2016"},{"id":54,"name":"Browar Prost","slug":"browar-prost","location":{"country":{"name":"Polska","symbol":"pl","slug":"polska"},"coordinates":["17.022977","51.150793"],"city":"Wrocław","address":"Paprotna 4"},"date":"październik 2016"},{"id":55,"name":"Browar Złoty Pies","slug":"browar-zloty-pies","location":{"country":{"name":"Polska","symbol":"pl","slug":"polska"},"coordinates":["17.033595","51.110382"],"city":"Wrocław","address":"Rynek 41"},"date":"październik 2016"},{"id":69,"name":"Legnicki Browar Książecy","slug":"legnicki-browar-ksiazecy","location":{"country":{"name":"Polska","symbol":"pl","slug":"polska"},"coordinates":["16.168097","51.212250"],"city":"Legnica","address":"Dworcowa 9"},"date":"czerwiec 2017"},{"id":80,"name":"Browar Jedlinka","slug":"browar-jedlinka","location":{"country":{"name":"Polska","symbol":"pl","slug":"polska"},"coordinates":["16.358363","50.713068"],"city":"Jedlina-Zdrój","address":"Zamkowa 3"},"date":"maj 2018"},{"id":87,"name":"Browar Wieżyca","slug":"browar-wiezyca","location":{"country":{"name":"Polska","symbol":"pl","slug":"polska"},"coordinates":["16.729274","50.887922"],"city":"Sobótka","address":"Armii Krajowej 13"},"date":"sierpień 2018"},{"id":88,"name":"Browar Caminus","slug":"browar-caminus","location":{"country":{"name":"Polska","symbol":"pl","slug":"polska"},"coordinates":["16.766502","51.030983"],"city":"Kąty Wrocławskie","address":"1 Maja 11"},"date":"sierpień 2018"},{"id":92,"name":"Browar Świdnica","slug":"browar-swidnica","location":{"country":{"name":"Polska","symbol":"pl","slug":"polska"},"coordinates":["16.499660","50.830839"],"city":"Świdnica","address":"Bystrzycka 28b"},"date":"październik 2018"},{"id":93,"name":"Warsztat Piwowarski","slug":"warsztat-piwowarski","location":{"country":{"name":"Polska","symbol":"pl","slug":"polska"},"coordinates":["17.070944","51.081644"],"city":"Wrocław","address":"Międzyleska 2-4"},"date":"październik 2018"},{"id":106,"name":"Browar Zielone Wzgórze","slug":"browar-zielone-wzgorze","location":{"country":{"name":"Polska","symbol":"pl","slug":"polska"},"coordinates":["16.735107","50.845959"],"city":"Sulistrowiczki","address":"Parkowa 3"},"date":"grudzień 2018"},{"id":203,"name":"Browar Rzemieślniczy Hoppy Lab","slug":"browar-rzemieslniczy-hoppy-lab","location":{"country":{"name":"Polska","symbol":"pl","slug":"polska"},"coordinates":["16.501218","50.937259"],"city":"Żarów","address":"Słowiańska 23"},"date":"maj 2020"},{"id":204,"name":"Anders Browar","slug":"anders-browar","location":{"country":{"name":"Polska","symbol":"pl","slug":"polska"},"coordinates":["17.704686","51.304494"],"city":"Syców","address":"Broniewskiego 33"},"date":"czerwiec 2020"},{"id":208,"name":"Browar Lwówek","slug":"browar-lwowek","location":{"country":{"name":"Polska","symbol":"pl","slug":"polska"},"coordinates":["15.584204","51.109507"],"city":"Lwówek Śląski","address":"Traugutta 7"},"date":"sierpień 2020"},{"id":209,"name":"Dolina BoBRU","slug":"dolina-bobru","location":{"country":{"name":"Polska","symbol":"pl","slug":"polska"},"coordinates":["15.667475","51.022049"],"city":"Wleń","address":"Zarzecze 4"},"date":"sierpień 2020"},{"id":233,"name":"Browar Cztery Ściany","slug":"browar-cztery-sciany","location":{"country":{"name":"Polska","symbol":"pl","slug":"polska"},"coordinates":["17.072219","51.322647"],"city":"Trzebnica","address":"Milicka 32"},"date":"październik 2020"}],"breweriesCount":22}