{"name":"mikrobrowar","slug":"mikrobrowar","extremes":{"north":"64.15805","east":"-21.93981","south":"35.48685","west":"24.735516"},"breweries":[{"id":8,"name":"Mashsee Brauerei","slug":"mashsee-brauerei","location":{"country":{"name":"Niemcy","symbol":"de","slug":"niemcy"},"coordinates":["9.750090","52.363900"],"city":"Hannover","address":"Am Eisenwerk 17"},"date":"marzec 2015"},{"id":16,"name":"Pivara Oldbridž","slug":"pivara-oldbridz","location":{"country":{"name":"Bośnia i Hercegowina","symbol":"ba","slug":"bosnia-i-hercegowina"},"coordinates":["17.826497","43.321743"],"city":"Mostar","address":"Južni logor"},"date":"wrzesień 2015"},{"id":21,"name":"Pivovar Clock","slug":"pivovar-clock","location":{"country":{"name":"Czechy","symbol":"cz","slug":"czechy"},"coordinates":["16.307572","50.082229"],"city":"Potštejn","address":"Školní 2"},"date":"październik 2015"},{"id":23,"name":"Browar Profesja","slug":"browar-profesja","location":{"country":{"name":"Polska","symbol":"pl","slug":"polska"},"coordinates":["17.092478","51.130970"],"city":"Wrocław","address":"Kwidzyńska 6E"},"date":"październik 2015"},{"id":25,"name":"Browar Roch","slug":"browar-roch","location":{"country":{"name":"Polska","symbol":"pl","slug":"polska"},"coordinates":["16.039856","50.940760"],"city":"Nowe Rochowice","address":"Nowe Rochowice 22"},"date":"maj 2016"},{"id":39,"name":"Minipivovar Skalický Budulínek","slug":"minipivovar-skalicky-budulinek","location":{"country":{"name":"Czechy","symbol":"cz","slug":"czechy"},"coordinates":["14.525247","50.741642"],"city":"Skalice u České Lípy","address":"Skalice u České Lípy 464"},"date":"sierpień 2016"},{"id":43,"name":"Browar Ziemia Obiecana","slug":"browar-ziemia-obiecana","location":{"country":{"name":"Polska","symbol":"pl","slug":"polska"},"coordinates":["19.352142","51.657678"],"city":"Pabianice","address":"Orla 6\/7\/3C"},"date":"sierpień 2016"},{"id":44,"name":"Kolwin","slug":"kolwin","location":{"country":{"name":"Polska","symbol":"pl","slug":"polska"},"coordinates":["19.199547","51.620163"],"city":"Łask","address":"Piekarnicza 2"},"date":"sierpień 2016"},{"id":45,"name":"Browar Koreb","slug":"browar-koreb","location":{"country":{"name":"Polska","symbol":"pl","slug":"polska"},"coordinates":["19.116613","51.600528"],"city":"Łask","address":"Stefana Żeromskiego 72"},"date":"sierpień 2016"},{"id":47,"name":"Pracownia Piwa","slug":"pracownia-piwa","location":{"country":{"name":"Polska","symbol":"pl","slug":"polska"},"coordinates":["19.838354","50.108962"],"city":"Modlniczka","address":"Kasztanowa 31"},"date":"wrzesień 2016"},{"id":60,"name":"Xaver Brauerei","slug":"xaver-brauerei","location":{"country":{"name":"Austria","symbol":"at","slug":"austria"},"coordinates":["16.335273","48.207830"],"city":"Wien","address":"Hasnerstraße 14"},"date":"listopad 2016"},{"id":66,"name":"Stolperhof","slug":"stolperhof","location":{"country":{"name":"Niemcy","symbol":"de","slug":"niemcy"},"coordinates":["13.984371","53.881178"],"city":"Stolpe auf Usedom","address":"Landweg 1"},"date":"czerwiec 2017"},{"id":81,"name":"Pałacyk Łąkomin","slug":"palacyk-lakomin","location":{"country":{"name":"Polska","symbol":"pl","slug":"polska"},"coordinates":["14.859883","52.765263"],"city":"Lubiszyn","address":"Łąkomin 1"},"date":"maj 2018"},{"id":87,"name":"Browar Wieżyca","slug":"browar-wiezyca","location":{"country":{"name":"Polska","symbol":"pl","slug":"polska"},"coordinates":["16.729274","50.887922"],"city":"Sobótka","address":"Armii Krajowej 13"},"date":"sierpień 2018"},{"id":90,"name":"Κρητική Ζυθοποιία","slug":"kritiki-zithopoiia","location":{"country":{"name":"Grecja","symbol":"gr","slug":"grecja"},"coordinates":["23.825786","35.486850"],"city":"Ζουνάκι","address":"Δ. Πλατανιάς"},"date":"wrzesień 2018"},{"id":92,"name":"Browar Świdnica","slug":"browar-swidnica","location":{"country":{"name":"Polska","symbol":"pl","slug":"polska"},"coordinates":["16.499660","50.830839"],"city":"Świdnica","address":"Bystrzycka 28b"},"date":"październik 2018"},{"id":93,"name":"Warsztat Piwowarski","slug":"warsztat-piwowarski","location":{"country":{"name":"Polska","symbol":"pl","slug":"polska"},"coordinates":["17.070944","51.081644"],"city":"Wrocław","address":"Międzyleska 2-4"},"date":"październik 2018"},{"id":96,"name":"Brouwerij 't IJ","slug":"brouwerij-t-ij","location":{"country":{"name":"Holandia","symbol":"nl","slug":"holandia"},"coordinates":["4.926416","52.366697"],"city":"Amsterdam","address":"Funenkade 7"},"date":"listopad 2018"},{"id":97,"name":"Oedipus Brewing","slug":"oedipus-brewing","location":{"country":{"name":"Holandia","symbol":"nl","slug":"holandia"},"coordinates":["4.921233","52.383559"],"city":"Amsterdam","address":"Gedempt Hamerkanaal 85"},"date":"listopad 2018"},{"id":98,"name":"Walhalla Brouwerij","slug":"walhalla-brouwerij","location":{"country":{"name":"Holandia","symbol":"nl","slug":"holandia"},"coordinates":["4.920534","52.385424"],"city":"Amsterdam","address":"Spijkerkade 10"},"date":"listopad 2018"},{"id":105,"name":"Humalakoda","slug":"humalakoda","location":{"country":{"name":"Estonia","symbol":"ee","slug":"estonia"},"coordinates":["24.735516","59.440728"],"city":"Tallinn","address":"Kopli 1"},"date":"grudzień 2018"},{"id":107,"name":"Põhjala Brewery","slug":"pohjala-brewery","location":{"country":{"name":"Estonia","symbol":"ee","slug":"estonia"},"coordinates":["24.727030","59.450336"],"city":"Tallinn","address":"Peetri 5"},"date":"luty 2019"},{"id":110,"name":"36по","slug":"36po","location":{"country":{"name":"Ukraina","symbol":"ua","slug":"ukraina"},"coordinates":["24.030911","49.842393"],"city":"Львів","address":"Ринок 36"},"date":"kwiecień 2019"},{"id":123,"name":"Birra del Console","slug":"birra-del-console","location":{"country":{"name":"Włochy","symbol":"it","slug":"wlochy"},"coordinates":["17.291384","40.956784"],"city":"Monopoli","address":"Via Trieste 24"},"date":"czerwiec 2019"},{"id":155,"name":"Liechtensteiner Brauhaus","slug":"liechtensteiner-brauhaus","location":{"country":{"name":"Liechtenstein","symbol":"li","slug":"liechtenstein"},"coordinates":["9.503731","47.169226"],"city":"Schaan","address":"Im Rösle 8"},"date":"sierpień 2019"},{"id":178,"name":"RVK Brewing Company","slug":"rvk-brewing-company","location":{"country":{"name":"Islandia","symbol":"is","slug":"islandia"},"coordinates":["-21.900240","64.140770"],"city":"Reykjavík","address":"Skipholt 31"},"date":"wrzesień 2019"},{"id":181,"name":"Ægisgarður","slug":"aegisgardur","location":{"country":{"name":"Islandia","symbol":"is","slug":"islandia"},"coordinates":["-21.939810","64.158050"],"city":"Reykjavík","address":"Eyjarslóð 5"},"date":"wrzesień 2019"},{"id":203,"name":"Browar Rzemieślniczy Hoppy Lab","slug":"browar-rzemieslniczy-hoppy-lab","location":{"country":{"name":"Polska","symbol":"pl","slug":"polska"},"coordinates":["16.501218","50.937259"],"city":"Żarów","address":"Słowiańska 23"},"date":"maj 2020"},{"id":209,"name":"Dolina BoBRU","slug":"dolina-bobru","location":{"country":{"name":"Polska","symbol":"pl","slug":"polska"},"coordinates":["15.667475","51.022049"],"city":"Wleń","address":"Zarzecze 4"},"date":"sierpień 2020"},{"id":215,"name":"Stadsbrouwerij Tilburg","slug":"stadsbrouwerij-tilburg","location":{"country":{"name":"Holandia","symbol":"nl","slug":"holandia"},"coordinates":["5.077193","51.557958"],"city":"Tilburg","address":"Noordhoekring 75"},"date":"wrzesień 2020"},{"id":224,"name":"De Kaapse Brouwers","slug":"de-kaapse-brouwers","location":{"country":{"name":"Holandia","symbol":"nl","slug":"holandia"},"coordinates":["4.486642","51.902090"],"city":"Rotterdam","address":"Nico Koomanskade 1025"},"date":"wrzesień 2020"},{"id":228,"name":"Kompaan Brouwerij","slug":"kompaan-brouwerij","location":{"country":{"name":"Holandia","symbol":"nl","slug":"holandia"},"coordinates":["4.346533","52.067020"],"city":"Den Haag","address":"Saturnusstraat 55"},"date":"wrzesień 2020"},{"id":229,"name":"Brouwerij De Prael (Den Haag)","slug":"brouwerij-de-prael-den-haag","location":{"country":{"name":"Holandia","symbol":"nl","slug":"holandia"},"coordinates":["4.292620","52.075236"],"city":"Den Haag","address":"Esperantoplein 20"},"date":"wrzesień 2020"},{"id":230,"name":"Brewpub De Kromme Haring","slug":"brewpub-de-kromme-haring","location":{"country":{"name":"Holandia","symbol":"nl","slug":"holandia"},"coordinates":["5.107641","52.075630"],"city":"Utrecht","address":"Europalaan 2C"},"date":"wrzesień 2020"},{"id":233,"name":"Browar Cztery Ściany","slug":"browar-cztery-sciany","location":{"country":{"name":"Polska","symbol":"pl","slug":"polska"},"coordinates":["17.072219","51.322647"],"city":"Trzebnica","address":"Milicka 32"},"date":"październik 2020"},{"id":234,"name":"Browar Nepomucen","slug":"browar-nepomucen","location":{"country":{"name":"Polska","symbol":"pl","slug":"polska"},"coordinates":["17.148843","51.585578"],"city":"Szkaradowo","address":"Szkaradowo 115"},"date":"październik 2020"},{"id":235,"name":"Browar Milicz","slug":"browar-milicz","location":{"country":{"name":"Polska","symbol":"pl","slug":"polska"},"coordinates":["17.284440","51.522857"],"city":"Milicz","address":"Zielona 5"},"date":"październik 2020"},{"id":237,"name":"Browar Cześć Brat!","slug":"browar-czesc-brat","location":{"country":{"name":"Polska","symbol":"pl","slug":"polska"},"coordinates":["17.350279","51.038900"],"city":"Jelcz-Laskowice","address":"Polna 38"},"date":"kwiecień 2021"},{"id":240,"name":"Browar Śląski Alternatywa","slug":"browar-slaski-alternatywa","location":{"country":{"name":"Polska","symbol":"pl","slug":"polska"},"coordinates":["18.882784","50.310659"],"city":"Ruda Śląska","address":"Tylna 17"},"date":"maj 2021"},{"id":241,"name":"Browar Podgórz","slug":"browar-podgorz","location":{"country":{"name":"Polska","symbol":"pl","slug":"polska"},"coordinates":["19.891312","49.520641"],"city":"Bielanka","address":"Bielanka 41b"},"date":"maj 2021"},{"id":244,"name":"Cervecería Tramuntana","slug":"cerveceria-tramuntana","location":{"country":{"name":"Hiszpania","symbol":"es","slug":"hiszpania"},"coordinates":["2.639564","39.572875"],"city":"Palma","address":"Carrer de Caro 14"},"date":"czerwiec 2021"},{"id":245,"name":"Cervecería Lowther","slug":"cerveceria-lowther","location":{"country":{"name":"Hiszpania","symbol":"es","slug":"hiszpania"},"coordinates":["2.634762","39.576758"],"city":"Palma","address":"Carrer de Joan Crespí 53"},"date":"czerwiec 2021"},{"id":246,"name":"Adalt Brewing","slug":"adalt-brewing","location":{"country":{"name":"Hiszpania","symbol":"es","slug":"hiszpania"},"coordinates":["2.654872","39.580158"],"city":"Palma","address":"Carrer de l'Arxiduc Lluís Salvador 40"},"date":"czerwiec 2021"},{"id":247,"name":"Forastera Cerveza Artesana","slug":"forastera-cerveza-artesana","location":{"country":{"name":"Hiszpania","symbol":"es","slug":"hiszpania"},"coordinates":["2.792272","39.704038"],"city":"Alaró","address":"Av. Constitució 34"},"date":"czerwiec 2021"}],"breweriesCount":44}