{"name":"piwo spróbowane na wynos","slug":"piwo-sprobowane-na-wynos","extremes":{"north":"52.3639","east":"5.077193","south":"47.169226","west":"19.116613"},"breweries":[{"id":8,"name":"Mashsee Brauerei","slug":"mashsee-brauerei","location":{"country":{"name":"Niemcy","symbol":"de","slug":"niemcy"},"coordinates":["9.750090","52.363900"],"city":"Hannover","address":"Am Eisenwerk 17"},"date":"marzec 2015"},{"id":32,"name":"Litoměřický pivovárek Koliba","slug":"litomericky-pivovarek-koliba","location":{"country":{"name":"Czechy","symbol":"cz","slug":"czechy"},"coordinates":["14.135112","50.535050"],"city":"Litoměřice","address":"Českolipská 2100\/12"},"date":"sierpień 2016"},{"id":39,"name":"Minipivovar Skalický Budulínek","slug":"minipivovar-skalicky-budulinek","location":{"country":{"name":"Czechy","symbol":"cz","slug":"czechy"},"coordinates":["14.525247","50.741642"],"city":"Skalice u České Lípy","address":"Skalice u České Lípy 464"},"date":"sierpień 2016"},{"id":45,"name":"Browar Koreb","slug":"browar-koreb","location":{"country":{"name":"Polska","symbol":"pl","slug":"polska"},"coordinates":["19.116613","51.600528"],"city":"Łask","address":"Stefana Żeromskiego 72"},"date":"sierpień 2016"},{"id":46,"name":"Browar Staropolski","slug":"browar-staropolski","location":{"country":{"name":"Polska","symbol":"pl","slug":"polska"},"coordinates":["18.935352","51.598347"],"city":"Zduńska Wola","address":"Świętego Maksymiliana Marii Kolbego 2"},"date":"sierpień 2016"},{"id":78,"name":"Landskron Brau-Manufaktur","slug":"landskron-brau-manufaktur","location":{"country":{"name":"Niemcy","symbol":"de","slug":"niemcy"},"coordinates":["14.988460","51.139940"],"city":"Görlitz","address":"An der Landskronbrauerei 116"},"date":"marzec 2018"},{"id":116,"name":"Neustädter Hausbrauerei Schwingenheuer","slug":"neustadter-hausbrauerei-schwingenheuer","location":{"country":{"name":"Niemcy","symbol":"de","slug":"niemcy"},"coordinates":["13.746962","51.069392"],"city":"Dresden","address":"Schönbrunnstraße 1"},"date":"maj 2019"},{"id":144,"name":"Brauhaus Hartmannsdorf","slug":"brauhaus-hartmannsdorf","location":{"country":{"name":"Niemcy","symbol":"de","slug":"niemcy"},"coordinates":["12.802835","50.886900"],"city":"Hartmannsdorf","address":"Chemnitzer Str. 5"},"date":"sierpień 2019"},{"id":155,"name":"Liechtensteiner Brauhaus","slug":"liechtensteiner-brauhaus","location":{"country":{"name":"Liechtenstein","symbol":"li","slug":"liechtenstein"},"coordinates":["9.503731","47.169226"],"city":"Schaan","address":"Im Rösle 8"},"date":"sierpień 2019"},{"id":190,"name":"Dürnsteiner Privatbrauerei","slug":"durnsteiner-privatbrauerei","location":{"country":{"name":"Austria","symbol":"at","slug":"austria"},"coordinates":["16.906429","48.123018"],"city":"Bad Deutsch-Altenburg","address":"Eumigstraße 1"},"date":"październik 2019"},{"id":215,"name":"Stadsbrouwerij Tilburg","slug":"stadsbrouwerij-tilburg","location":{"country":{"name":"Holandia","symbol":"nl","slug":"holandia"},"coordinates":["5.077193","51.557958"],"city":"Tilburg","address":"Noordhoekring 75"},"date":"wrzesień 2020"},{"id":230,"name":"Brewpub De Kromme Haring","slug":"brewpub-de-kromme-haring","location":{"country":{"name":"Holandia","symbol":"nl","slug":"holandia"},"coordinates":["5.107641","52.075630"],"city":"Utrecht","address":"Europalaan 2C"},"date":"wrzesień 2020"},{"id":232,"name":"Stadskasteel Oudaen","slug":"stadskasteel-oudaen","location":{"country":{"name":"Holandia","symbol":"nl","slug":"holandia"},"coordinates":["5.116690","52.092862"],"city":"Utrecht","address":"Oudegracht 99"},"date":"wrzesień 2020"}],"breweriesCount":13}