{"name":"piwo spróbowane z tanka","slug":"piwo-sprobowane-z-tanka","extremes":{"north":"51.657678","east":"13.38864","south":"43.321743","west":"19.613174"},"breweries":[{"id":16,"name":"Pivara Oldbridž","slug":"pivara-oldbridz","location":{"country":{"name":"Bośnia i Hercegowina","symbol":"ba","slug":"bosnia-i-hercegowina"},"coordinates":["17.826497","43.321743"],"city":"Mostar","address":"Južni logor"},"date":"wrzesień 2015"},{"id":23,"name":"Browar Profesja","slug":"browar-profesja","location":{"country":{"name":"Polska","symbol":"pl","slug":"polska"},"coordinates":["17.092478","51.130970"],"city":"Wrocław","address":"Kwidzyńska 6E"},"date":"październik 2015"},{"id":43,"name":"Browar Ziemia Obiecana","slug":"browar-ziemia-obiecana","location":{"country":{"name":"Polska","symbol":"pl","slug":"polska"},"coordinates":["19.352142","51.657678"],"city":"Pabianice","address":"Orla 6\/7\/3C"},"date":"sierpień 2016"},{"id":48,"name":"Browar Tenczynek","slug":"browar-tenczynek","location":{"country":{"name":"Polska","symbol":"pl","slug":"polska"},"coordinates":["19.613174","50.119972"],"city":"Tenczynek","address":"Tenczyńska 59"},"date":"wrzesień 2016"},{"id":69,"name":"Legnicki Browar Książecy","slug":"legnicki-browar-ksiazecy","location":{"country":{"name":"Polska","symbol":"pl","slug":"polska"},"coordinates":["16.168097","51.212250"],"city":"Legnica","address":"Dworcowa 9"},"date":"czerwiec 2017"},{"id":158,"name":"Plzeňský Prazdroj","slug":"plzensky-prazdroj","location":{"country":{"name":"Czechy","symbol":"cz","slug":"czechy"},"coordinates":["13.388640","49.749235"],"city":"Plzeň","address":"U Prazdroje 113"},"date":"sierpień 2019"}],"breweriesCount":6}