{"name":"przybrowarniany sklep","slug":"przybrowarniany-sklep","extremes":{"north":"52.765263","east":"9.503731","south":"36.035978","west":"19.838354"},"breweries":[{"id":8,"name":"Mashsee Brauerei","slug":"mashsee-brauerei","location":{"country":{"name":"Niemcy","symbol":"de","slug":"niemcy"},"coordinates":["9.750090","52.363900"],"city":"Hannover","address":"Am Eisenwerk 17"},"date":"marzec 2015"},{"id":9,"name":"Pivovar Krakonoš","slug":"pivovar-krakonos","location":{"country":{"name":"Czechy","symbol":"cz","slug":"czechy"},"coordinates":["15.908550","50.561473"],"city":"Trutnov","address":"Křižíkova 486"},"date":"maj 2015"},{"id":16,"name":"Pivara Oldbridž","slug":"pivara-oldbridz","location":{"country":{"name":"Bośnia i Hercegowina","symbol":"ba","slug":"bosnia-i-hercegowina"},"coordinates":["17.826497","43.321743"],"city":"Mostar","address":"Južni logor"},"date":"wrzesień 2015"},{"id":18,"name":"Pivovar Náchod","slug":"pivovar-nachod","location":{"country":{"name":"Czechy","symbol":"cz","slug":"czechy"},"coordinates":["16.162119","50.417219"],"city":"Náchod","address":"Dobrošovská 130"},"date":"październik 2015"},{"id":32,"name":"Litoměřický pivovárek Koliba","slug":"litomericky-pivovarek-koliba","location":{"country":{"name":"Czechy","symbol":"cz","slug":"czechy"},"coordinates":["14.135112","50.535050"],"city":"Litoměřice","address":"Českolipská 2100\/12"},"date":"sierpień 2016"},{"id":39,"name":"Minipivovar Skalický Budulínek","slug":"minipivovar-skalicky-budulinek","location":{"country":{"name":"Czechy","symbol":"cz","slug":"czechy"},"coordinates":["14.525247","50.741642"],"city":"Skalice u České Lípy","address":"Skalice u České Lípy 464"},"date":"sierpień 2016"},{"id":41,"name":"Zámecký pivovar Frýdlant","slug":"zamecky-pivovar-frydlant","location":{"country":{"name":"Czechy","symbol":"cz","slug":"czechy"},"coordinates":["15.087051","50.914583"],"city":"Frýdlant","address":"Hejnická 4018"},"date":"sierpień 2016"},{"id":45,"name":"Browar Koreb","slug":"browar-koreb","location":{"country":{"name":"Polska","symbol":"pl","slug":"polska"},"coordinates":["19.116613","51.600528"],"city":"Łask","address":"Stefana Żeromskiego 72"},"date":"sierpień 2016"},{"id":46,"name":"Browar Staropolski","slug":"browar-staropolski","location":{"country":{"name":"Polska","symbol":"pl","slug":"polska"},"coordinates":["18.935352","51.598347"],"city":"Zduńska Wola","address":"Świętego Maksymiliana Marii Kolbego 2"},"date":"sierpień 2016"},{"id":47,"name":"Pracownia Piwa","slug":"pracownia-piwa","location":{"country":{"name":"Polska","symbol":"pl","slug":"polska"},"coordinates":["19.838354","50.108962"],"city":"Modlniczka","address":"Kasztanowa 31"},"date":"wrzesień 2016"},{"id":78,"name":"Landskron Brau-Manufaktur","slug":"landskron-brau-manufaktur","location":{"country":{"name":"Niemcy","symbol":"de","slug":"niemcy"},"coordinates":["14.988460","51.139940"],"city":"Görlitz","address":"An der Landskronbrauerei 116"},"date":"marzec 2018"},{"id":81,"name":"Pałacyk Łąkomin","slug":"palacyk-lakomin","location":{"country":{"name":"Polska","symbol":"pl","slug":"polska"},"coordinates":["14.859883","52.765263"],"city":"Lubiszyn","address":"Łąkomin 1"},"date":"maj 2018"},{"id":114,"name":"Bergquell Brauerei Löbau","slug":"bergquell-brauerei-lobau","location":{"country":{"name":"Niemcy","symbol":"de","slug":"niemcy"},"coordinates":["14.659918","51.108824"],"city":"Löbau","address":"Weststraße 7"},"date":"maj 2019"},{"id":116,"name":"Neustädter Hausbrauerei Schwingenheuer","slug":"neustadter-hausbrauerei-schwingenheuer","location":{"country":{"name":"Niemcy","symbol":"de","slug":"niemcy"},"coordinates":["13.746962","51.069392"],"city":"Dresden","address":"Schönbrunnstraße 1"},"date":"maj 2019"},{"id":118,"name":"Frenzel-Bräu","slug":"frenzel-brau","location":{"country":{"name":"Niemcy","symbol":"de","slug":"niemcy"},"coordinates":["14.419708","51.171262"],"city":"Bautzen","address":"Humboldtstraße 21A"},"date":"maj 2019"},{"id":123,"name":"Birra del Console","slug":"birra-del-console","location":{"country":{"name":"Włochy","symbol":"it","slug":"wlochy"},"coordinates":["17.291384","40.956784"],"city":"Monopoli","address":"Via Trieste 24"},"date":"czerwiec 2019"},{"id":126,"name":"Lord Chambray","slug":"lord-chambray","location":{"country":{"name":"Malta","symbol":"mt","slug":"malta"},"coordinates":["14.261515","36.035978"],"city":"Ix-Xewkija","address":"Mgarr Road"},"date":"czerwiec 2019"},{"id":144,"name":"Brauhaus Hartmannsdorf","slug":"brauhaus-hartmannsdorf","location":{"country":{"name":"Niemcy","symbol":"de","slug":"niemcy"},"coordinates":["12.802835","50.886900"],"city":"Hartmannsdorf","address":"Chemnitzer Str. 5"},"date":"sierpień 2019"},{"id":148,"name":"Ambräusianum","slug":"ambrausianum","location":{"country":{"name":"Niemcy","symbol":"de","slug":"niemcy"},"coordinates":["10.884596","49.891779"],"city":"Bamberg","address":"Dominikanerstraße 10"},"date":"sierpień 2019"},{"id":149,"name":"Klosterbräu Bamberg","slug":"klosterbrau-bamberg","location":{"country":{"name":"Niemcy","symbol":"de","slug":"niemcy"},"coordinates":["10.887195","49.889262"],"city":"Bamberg","address":"Obere Mühlbrücke 1-3"},"date":"sierpień 2019"},{"id":155,"name":"Liechtensteiner Brauhaus","slug":"liechtensteiner-brauhaus","location":{"country":{"name":"Liechtenstein","symbol":"li","slug":"liechtenstein"},"coordinates":["9.503731","47.169226"],"city":"Schaan","address":"Im Rösle 8"},"date":"sierpień 2019"},{"id":190,"name":"Dürnsteiner Privatbrauerei","slug":"durnsteiner-privatbrauerei","location":{"country":{"name":"Austria","symbol":"at","slug":"austria"},"coordinates":["16.906429","48.123018"],"city":"Bad Deutsch-Altenburg","address":"Eumigstraße 1"},"date":"październik 2019"},{"id":203,"name":"Browar Rzemieślniczy Hoppy Lab","slug":"browar-rzemieslniczy-hoppy-lab","location":{"country":{"name":"Polska","symbol":"pl","slug":"polska"},"coordinates":["16.501218","50.937259"],"city":"Żarów","address":"Słowiańska 23"},"date":"maj 2020"},{"id":204,"name":"Anders Browar","slug":"anders-browar","location":{"country":{"name":"Polska","symbol":"pl","slug":"polska"},"coordinates":["17.704686","51.304494"],"city":"Syców","address":"Broniewskiego 33"},"date":"czerwiec 2020"},{"id":208,"name":"Browar Lwówek","slug":"browar-lwowek","location":{"country":{"name":"Polska","symbol":"pl","slug":"polska"},"coordinates":["15.584204","51.109507"],"city":"Lwówek Śląski","address":"Traugutta 7"},"date":"sierpień 2020"},{"id":209,"name":"Dolina BoBRU","slug":"dolina-bobru","location":{"country":{"name":"Polska","symbol":"pl","slug":"polska"},"coordinates":["15.667475","51.022049"],"city":"Wleń","address":"Zarzecze 4"},"date":"sierpień 2020"},{"id":210,"name":"Browar Regionalny EDI","slug":"browar-regionalny-edi","location":{"country":{"name":"Polska","symbol":"pl","slug":"polska"},"coordinates":["16.290251","51.831689"],"city":"Nowa Wieś","address":"Nowa Wieś 5e"},"date":"sierpień 2020"}],"breweriesCount":27}