{"name":"spotkanie z piwowarem","slug":"spotkanie-z-piwowarem","extremes":{"north":"64.15805","east":"-21.93981","south":"36.035978","west":"19.891312"},"breweries":[{"id":10,"name":"Pivovarská Bašta","slug":"pivovarska-basta","location":{"country":{"name":"Czechy","symbol":"cz","slug":"czechy"},"coordinates":["15.608565","50.642908"],"city":"Vrchlabí","address":"Horská 198"},"date":"maj 2015"},{"id":16,"name":"Pivara Oldbridž","slug":"pivara-oldbridz","location":{"country":{"name":"Bośnia i Hercegowina","symbol":"ba","slug":"bosnia-i-hercegowina"},"coordinates":["17.826497","43.321743"],"city":"Mostar","address":"Južni logor"},"date":"wrzesień 2015"},{"id":23,"name":"Browar Profesja","slug":"browar-profesja","location":{"country":{"name":"Polska","symbol":"pl","slug":"polska"},"coordinates":["17.092478","51.130970"],"city":"Wrocław","address":"Kwidzyńska 6E"},"date":"październik 2015"},{"id":25,"name":"Browar Roch","slug":"browar-roch","location":{"country":{"name":"Polska","symbol":"pl","slug":"polska"},"coordinates":["16.039856","50.940760"],"city":"Nowe Rochowice","address":"Nowe Rochowice 22"},"date":"maj 2016"},{"id":27,"name":"Browar Księży Młyn","slug":"browar-ksiezy-mlyn","location":{"country":{"name":"Polska","symbol":"pl","slug":"polska"},"coordinates":["19.476305","51.752514"],"city":"Łódź","address":"Księdza Biskupa Wincentego Tymienieckiego 22\/24"},"date":"lipiec 2016"},{"id":30,"name":"Schloßbrauerei Weesenstein","slug":"schlossbrauerei-weesenstein","location":{"country":{"name":"Niemcy","symbol":"de","slug":"niemcy"},"coordinates":["13.860080","50.932620"],"city":"Müglitztal","address":"Am Schloßberg 1"},"date":"sierpień 2016"},{"id":39,"name":"Minipivovar Skalický Budulínek","slug":"minipivovar-skalicky-budulinek","location":{"country":{"name":"Czechy","symbol":"cz","slug":"czechy"},"coordinates":["14.525247","50.741642"],"city":"Skalice u České Lípy","address":"Skalice u České Lípy 464"},"date":"sierpień 2016"},{"id":43,"name":"Browar Ziemia Obiecana","slug":"browar-ziemia-obiecana","location":{"country":{"name":"Polska","symbol":"pl","slug":"polska"},"coordinates":["19.352142","51.657678"],"city":"Pabianice","address":"Orla 6\/7\/3C"},"date":"sierpień 2016"},{"id":47,"name":"Pracownia Piwa","slug":"pracownia-piwa","location":{"country":{"name":"Polska","symbol":"pl","slug":"polska"},"coordinates":["19.838354","50.108962"],"city":"Modlniczka","address":"Kasztanowa 31"},"date":"wrzesień 2016"},{"id":48,"name":"Browar Tenczynek","slug":"browar-tenczynek","location":{"country":{"name":"Polska","symbol":"pl","slug":"polska"},"coordinates":["19.613174","50.119972"],"city":"Tenczynek","address":"Tenczyńska 59"},"date":"wrzesień 2016"},{"id":60,"name":"Xaver Brauerei","slug":"xaver-brauerei","location":{"country":{"name":"Austria","symbol":"at","slug":"austria"},"coordinates":["16.335273","48.207830"],"city":"Wien","address":"Hasnerstraße 14"},"date":"listopad 2016"},{"id":61,"name":"Brauwerk Wien","slug":"brauwerk-wien","location":{"country":{"name":"Austria","symbol":"at","slug":"austria"},"coordinates":["16.324822","48.212931"],"city":"Wien","address":"Ottakringer Pl. 1"},"date":"listopad 2016"},{"id":69,"name":"Legnicki Browar Książecy","slug":"legnicki-browar-ksiazecy","location":{"country":{"name":"Polska","symbol":"pl","slug":"polska"},"coordinates":["16.168097","51.212250"],"city":"Legnica","address":"Dworcowa 9"},"date":"czerwiec 2017"},{"id":92,"name":"Browar Świdnica","slug":"browar-swidnica","location":{"country":{"name":"Polska","symbol":"pl","slug":"polska"},"coordinates":["16.499660","50.830839"],"city":"Świdnica","address":"Bystrzycka 28b"},"date":"październik 2018"},{"id":93,"name":"Warsztat Piwowarski","slug":"warsztat-piwowarski","location":{"country":{"name":"Polska","symbol":"pl","slug":"polska"},"coordinates":["17.070944","51.081644"],"city":"Wrocław","address":"Międzyleska 2-4"},"date":"październik 2018"},{"id":95,"name":"Brouwerij Homeland","slug":"brouwerij-homeland","location":{"country":{"name":"Holandia","symbol":"nl","slug":"holandia"},"coordinates":["4.916755","52.373034"],"city":"Amsterdam","address":"Kattenburgerstraat 5"},"date":"listopad 2018"},{"id":118,"name":"Frenzel-Bräu","slug":"frenzel-brau","location":{"country":{"name":"Niemcy","symbol":"de","slug":"niemcy"},"coordinates":["14.419708","51.171262"],"city":"Bautzen","address":"Humboldtstraße 21A"},"date":"maj 2019"},{"id":123,"name":"Birra del Console","slug":"birra-del-console","location":{"country":{"name":"Włochy","symbol":"it","slug":"wlochy"},"coordinates":["17.291384","40.956784"],"city":"Monopoli","address":"Via Trieste 24"},"date":"czerwiec 2019"},{"id":126,"name":"Lord Chambray","slug":"lord-chambray","location":{"country":{"name":"Malta","symbol":"mt","slug":"malta"},"coordinates":["14.261515","36.035978"],"city":"Ix-Xewkija","address":"Mgarr Road"},"date":"czerwiec 2019"},{"id":161,"name":"Bloomsbury Brewery","slug":"bloomsbury-brewery","location":{"country":{"name":"Wielka Brytania","symbol":"gb","slug":"wielka-brytania"},"coordinates":["-0.118833","51.522247"],"city":"London","address":"63 Lamb's Conduit St"},"date":"wrzesień 2019"},{"id":163,"name":"Southwark Brewing Company","slug":"southwark-brewing-company","location":{"country":{"name":"Wielka Brytania","symbol":"gb","slug":"wielka-brytania"},"coordinates":["-0.077070","51.500580"],"city":"London","address":"46 Druid St"},"date":"wrzesień 2019"},{"id":166,"name":"Anspach & Hobday","slug":"anspach-hobday","location":{"country":{"name":"Wielka Brytania","symbol":"gb","slug":"wielka-brytania"},"coordinates":["-0.073500","51.498690"],"city":"London","address":"118 Druid St"},"date":"wrzesień 2019"},{"id":169,"name":"The Kernel Brewery","slug":"the-kernel-brewery","location":{"country":{"name":"Wielka Brytania","symbol":"gb","slug":"wielka-brytania"},"coordinates":["-0.068530","51.495756"],"city":"London","address":"Arch 11, Dockley Road Industrial Estate"},"date":"wrzesień 2019"},{"id":171,"name":"Partizan Brewing","slug":"partizan-brewing","location":{"country":{"name":"Wielka Brytania","symbol":"gb","slug":"wielka-brytania"},"coordinates":["-0.057560","51.491440"],"city":"London","address":"34 Raymouth Rd"},"date":"wrzesień 2019"},{"id":178,"name":"RVK Brewing Company","slug":"rvk-brewing-company","location":{"country":{"name":"Islandia","symbol":"is","slug":"islandia"},"coordinates":["-21.900240","64.140770"],"city":"Reykjavík","address":"Skipholt 31"},"date":"wrzesień 2019"},{"id":181,"name":"Ægisgarður","slug":"aegisgardur","location":{"country":{"name":"Islandia","symbol":"is","slug":"islandia"},"coordinates":["-21.939810","64.158050"],"city":"Reykjavík","address":"Eyjarslóð 5"},"date":"wrzesień 2019"},{"id":202,"name":"Sowiduch Browar i Restauracja","slug":"sowiduch-browar-i-restauracja","location":{"country":{"name":"Polska","symbol":"pl","slug":"polska"},"coordinates":["15.755774","50.775112"],"city":"Karpacz","address":"Konstytucji 3-ego Maja 45 A"},"date":"styczeń 2020"},{"id":203,"name":"Browar Rzemieślniczy Hoppy Lab","slug":"browar-rzemieslniczy-hoppy-lab","location":{"country":{"name":"Polska","symbol":"pl","slug":"polska"},"coordinates":["16.501218","50.937259"],"city":"Żarów","address":"Słowiańska 23"},"date":"maj 2020"},{"id":210,"name":"Browar Regionalny EDI","slug":"browar-regionalny-edi","location":{"country":{"name":"Polska","symbol":"pl","slug":"polska"},"coordinates":["16.290251","51.831689"],"city":"Nowa Wieś","address":"Nowa Wieś 5e"},"date":"sierpień 2020"},{"id":215,"name":"Stadsbrouwerij Tilburg","slug":"stadsbrouwerij-tilburg","location":{"country":{"name":"Holandia","symbol":"nl","slug":"holandia"},"coordinates":["5.077193","51.557958"],"city":"Tilburg","address":"Noordhoekring 75"},"date":"wrzesień 2020"},{"id":230,"name":"Brewpub De Kromme Haring","slug":"brewpub-de-kromme-haring","location":{"country":{"name":"Holandia","symbol":"nl","slug":"holandia"},"coordinates":["5.107641","52.075630"],"city":"Utrecht","address":"Europalaan 2C"},"date":"wrzesień 2020"},{"id":233,"name":"Browar Cztery Ściany","slug":"browar-cztery-sciany","location":{"country":{"name":"Polska","symbol":"pl","slug":"polska"},"coordinates":["17.072219","51.322647"],"city":"Trzebnica","address":"Milicka 32"},"date":"październik 2020"},{"id":234,"name":"Browar Nepomucen","slug":"browar-nepomucen","location":{"country":{"name":"Polska","symbol":"pl","slug":"polska"},"coordinates":["17.148843","51.585578"],"city":"Szkaradowo","address":"Szkaradowo 115"},"date":"październik 2020"},{"id":235,"name":"Browar Milicz","slug":"browar-milicz","location":{"country":{"name":"Polska","symbol":"pl","slug":"polska"},"coordinates":["17.284440","51.522857"],"city":"Milicz","address":"Zielona 5"},"date":"październik 2020"},{"id":237,"name":"Browar Cześć Brat!","slug":"browar-czesc-brat","location":{"country":{"name":"Polska","symbol":"pl","slug":"polska"},"coordinates":["17.350279","51.038900"],"city":"Jelcz-Laskowice","address":"Polna 38"},"date":"kwiecień 2021"},{"id":240,"name":"Browar Śląski Alternatywa","slug":"browar-slaski-alternatywa","location":{"country":{"name":"Polska","symbol":"pl","slug":"polska"},"coordinates":["18.882784","50.310659"],"city":"Ruda Śląska","address":"Tylna 17"},"date":"maj 2021"},{"id":241,"name":"Browar Podgórz","slug":"browar-podgorz","location":{"country":{"name":"Polska","symbol":"pl","slug":"polska"},"coordinates":["19.891312","49.520641"],"city":"Bielanka","address":"Bielanka 41b"},"date":"maj 2021"},{"id":242,"name":"Browar Przystań","slug":"browar-przystan","location":{"country":{"name":"Polska","symbol":"pl","slug":"polska"},"coordinates":["18.979057","50.289690"],"city":"Chorzów","address":"al. Klonowa 4"},"date":"maj 2021"},{"id":243,"name":"Minibrowar Reden","slug":"minibrowar-reden","location":{"country":{"name":"Polska","symbol":"pl","slug":"polska"},"coordinates":["18.953022","50.294233"],"city":"Chorzów","address":"ul. Jana III Sobieskiego 17"},"date":"maj 2021"}],"breweriesCount":39}