{"name":"zorganizowana wycieczka","slug":"zorganizowana-wycieczka","extremes":{"north":"52.385371","east":"4.891825","south":"49.747613","west":"24.015718"},"breweries":[{"id":23,"name":"Browar Profesja","slug":"browar-profesja","location":{"country":{"name":"Polska","symbol":"pl","slug":"polska"},"coordinates":["17.092478","51.130970"],"city":"Wrocław","address":"Kwidzyńska 6E"},"date":"październik 2015"},{"id":48,"name":"Browar Tenczynek","slug":"browar-tenczynek","location":{"country":{"name":"Polska","symbol":"pl","slug":"polska"},"coordinates":["19.613174","50.119972"],"city":"Tenczynek","address":"Tenczyńska 59"},"date":"wrzesień 2016"},{"id":56,"name":"Lech Browary Wielkopolski","slug":"lech-browary-wielkopolski","location":{"country":{"name":"Polska","symbol":"pl","slug":"polska"},"coordinates":["16.996839","52.385371"],"city":"Poznań","address":"Szwajcarska 11"},"date":"listopad 2016"},{"id":94,"name":"Heineken Experience","slug":"heineken-experience","location":{"country":{"name":"Holandia","symbol":"nl","slug":"holandia"},"coordinates":["4.891825","52.357833"],"city":"Amsterdam","address":"Stadhouderskade 78"},"date":"listopad 2018"},{"id":111,"name":"Львівська пивоварня","slug":"lvivska-pivovarnya","location":{"country":{"name":"Ukraina","symbol":"ua","slug":"ukraina"},"coordinates":["24.015718","49.847699"],"city":"Львів","address":"Клепарівська 18"},"date":"kwiecień 2019"},{"id":157,"name":"Plzeňský Prazdroj (experimental microbrewery)","slug":"plzensky-prazdroj-experimental-microbrewery","location":{"country":{"name":"Czechy","symbol":"cz","slug":"czechy"},"coordinates":["13.387387","49.747613"],"city":"Plzeň","address":"U Prazdroje 113"},"date":"sierpień 2019"},{"id":158,"name":"Plzeňský Prazdroj","slug":"plzensky-prazdroj","location":{"country":{"name":"Czechy","symbol":"cz","slug":"czechy"},"coordinates":["13.388640","49.749235"],"city":"Plzeň","address":"U Prazdroje 113"},"date":"sierpień 2019"},{"id":215,"name":"Stadsbrouwerij Tilburg","slug":"stadsbrouwerij-tilburg","location":{"country":{"name":"Holandia","symbol":"nl","slug":"holandia"},"coordinates":["5.077193","51.557958"],"city":"Tilburg","address":"Noordhoekring 75"},"date":"wrzesień 2020"}],"breweriesCount":8}