{"label":"czerwiec 2017","slug":"06","extremes":{"north":"53.955741","east":"13.984371","south":"51.21225","west":"16.168097"},"breweries":[{"id":66,"name":"Stolperhof","slug":"stolperhof","location":{"country":{"name":"Niemcy","symbol":"de","slug":"niemcy"},"coordinates":["13.984371","53.881178"],"city":"Stolpe auf Usedom","address":"Landweg 1"},"date":"czerwiec 2017"},{"id":67,"name":"Wasserschloss Mellenthin","slug":"wasserschloss-mellenthin","location":{"country":{"name":"Niemcy","symbol":"de","slug":"niemcy"},"coordinates":["14.016687","53.924117"],"city":"Mellenthin","address":"Schloßallee 5"},"date":"czerwiec 2017"},{"id":68,"name":"Usedomer Brauhaus","slug":"usedomer-brauhaus","location":{"country":{"name":"Niemcy","symbol":"de","slug":"niemcy"},"coordinates":["14.166097","53.955741"],"city":"Heringsdorf","address":"Friedensplatz"},"date":"czerwiec 2017"},{"id":69,"name":"Legnicki Browar Książecy","slug":"legnicki-browar-ksiazecy","location":{"country":{"name":"Polska","symbol":"pl","slug":"polska"},"coordinates":["16.168097","51.212250"],"city":"Legnica","address":"Dworcowa 9"},"date":"czerwiec 2017"}]}