{"label":"lipiec 2017","slug":"07","extremes":{"north":"52.014492","east":"13.406927","south":"45.63473","west":"18.5259"},"breweries":[{"id":70,"name":"Browar Turek","slug":"browar-turek","location":{"country":{"name":"Polska","symbol":"pl","slug":"polska"},"coordinates":["18.525900","52.014492"],"city":"Turek","address":"aleja NSZZ Solidarność 37"},"date":"lipiec 2017"},{"id":71,"name":"Pivovárek na Kopečku","slug":"pivovarek-na-kopecku","location":{"country":{"name":"Czechy","symbol":"cz","slug":"czechy"},"coordinates":["16.460646","49.752344"],"city":"Svitavy","address":"Radiměřská 5a"},"date":"lipiec 2017"},{"id":72,"name":"Beaver Brewing Company","slug":"beaver-brewing-company","location":{"country":{"name":"Austria","symbol":"at","slug":"austria"},"coordinates":["16.356967","48.224593"],"city":"Wien","address":"Liechtensteinstraße 69"},"date":"lipiec 2017"},{"id":73,"name":"Birrificio Cavana","slug":"birrificio-cavana","location":{"country":{"name":"Włochy","symbol":"it","slug":"wlochy"},"coordinates":["13.766490","45.648619"],"city":"Trieste","address":"Via della Pescheria 18"},"date":"lipiec 2017"},{"id":74,"name":"Birrificio Tazebao","slug":"birrificio-tazebao","location":{"country":{"name":"Włochy","symbol":"it","slug":"wlochy"},"coordinates":["13.781947","45.634730"],"city":"Trieste","address":"Via Lorenzo Lorenzetti 9"},"date":"lipiec 2017"},{"id":75,"name":"BEFeD Fiumicello","slug":"befed-fiumicello","location":{"country":{"name":"Włochy","symbol":"it","slug":"wlochy"},"coordinates":["13.406927","45.771247"],"city":"Fiumicello","address":"Via S. Lorenzo 65"},"date":"lipiec 2017"},{"id":76,"name":"Pivovarna Zupanič","slug":"pivovarna-zupanic","location":{"country":{"name":"Słowenia","symbol":"si","slug":"slowenia"},"coordinates":["15.683892","46.540247"],"city":"Maribor","address":"Dupleška cesta 34a"},"date":"lipiec 2017"}]}