{"name":"Amsterdam, listopad 2018","slug":"amsterdam-listopad-2018","extremes":{"north":"52.385424","east":"4.891825","south":"52.35767","west":"4.935709"},"breweries":{"heineken-experience":{"id":94,"name":"Heineken Experience","slug":"heineken-experience","location":{"country":{"name":"Holandia","symbol":"nl","slug":"holandia"},"coordinates":["4.891825","52.357833"],"city":"Amsterdam","address":"Stadhouderskade 78"},"date":"listopad 2018"},"brouwerij-homeland":{"id":95,"name":"Brouwerij Homeland","slug":"brouwerij-homeland","location":{"country":{"name":"Holandia","symbol":"nl","slug":"holandia"},"coordinates":["4.916755","52.373034"],"city":"Amsterdam","address":"Kattenburgerstraat 5"},"date":"listopad 2018"},"brouwerij-t-ij":{"id":96,"name":"Brouwerij 't IJ","slug":"brouwerij-t-ij","location":{"country":{"name":"Holandia","symbol":"nl","slug":"holandia"},"coordinates":["4.926416","52.366697"],"city":"Amsterdam","address":"Funenkade 7"},"date":"listopad 2018"},"oedipus-brewing":{"id":97,"name":"Oedipus Brewing","slug":"oedipus-brewing","location":{"country":{"name":"Holandia","symbol":"nl","slug":"holandia"},"coordinates":["4.921233","52.383559"],"city":"Amsterdam","address":"Gedempt Hamerkanaal 85"},"date":"listopad 2018"},"walhalla-brouwerij":{"id":98,"name":"Walhalla Brouwerij","slug":"walhalla-brouwerij","location":{"country":{"name":"Holandia","symbol":"nl","slug":"holandia"},"coordinates":["4.920534","52.385424"],"city":"Amsterdam","address":"Spijkerkade 10"},"date":"listopad 2018"},"de-bekeerde-suster":{"id":99,"name":"De Bekeerde Suster","slug":"de-bekeerde-suster","location":{"country":{"name":"Holandia","symbol":"nl","slug":"holandia"},"coordinates":["4.899240","52.372070"],"city":"Amsterdam","address":"Kloveniersburgwal 6"},"date":"listopad 2018"},"brouwerij-de-prael":{"id":100,"name":"Brouwerij de Prael","slug":"brouwerij-de-prael","location":{"country":{"name":"Holandia","symbol":"nl","slug":"holandia"},"coordinates":["4.899736","52.375484"],"city":"Amsterdam","address":"Oudezijds Armsteeg 20"},"date":"listopad 2018"},"bierfabriek-amsterdam":{"id":101,"name":"Bierfabriek Amsterdam","slug":"bierfabriek-amsterdam","location":{"country":{"name":"Holandia","symbol":"nl","slug":"holandia"},"coordinates":["4.893586","52.370059"],"city":"Amsterdam","address":"Nes 67"},"date":"listopad 2018"},"poesiat-kater":{"id":102,"name":"Poesiat & Kater","slug":"poesiat-kater","location":{"country":{"name":"Holandia","symbol":"nl","slug":"holandia"},"coordinates":["4.935709","52.357670"],"city":"Amsterdam","address":"Polderweg 648"},"date":"listopad 2018"}},"countries":{"holandia":{"name":"Holandia","symbol":"nl","slug":"holandia","breweriesCount":31}}}