{"name":"kraj hradecki, maj 2015","slug":"kraj-hradecki-maj-2015","extremes":{"north":"50.877754","east":"15.603281","south":"50.561473","west":"15.939254"},"breweries":{"pivovar-krakonos":{"id":9,"name":"Pivovar Krakonoš","slug":"pivovar-krakonos","location":{"country":{"name":"Czechy","symbol":"cz","slug":"czechy"},"coordinates":["15.908550","50.561473"],"city":"Trutnov","address":"Křižíkova 486"},"date":"maj 2015"},"pivovarska-basta":{"id":10,"name":"Pivovarská Bašta","slug":"pivovarska-basta","location":{"country":{"name":"Czechy","symbol":"cz","slug":"czechy"},"coordinates":["15.608565","50.642908"],"city":"Vrchlabí","address":"Horská 198"},"date":"maj 2015"},"pivovar-hendrych":{"id":11,"name":"Pivovar Hendrych","slug":"pivovar-hendrych","location":{"country":{"name":"Czechy","symbol":"cz","slug":"czechy"},"coordinates":["15.603281","50.654901"],"city":"Vrchlabí","address":"Horská 192"},"date":"maj 2015"},"minipivovar-friesovy-boudy":{"id":12,"name":"Minipivovar Friesovy Boudy","slug":"minipivovar-friesovy-boudy","location":{"country":{"name":"Czechy","symbol":"cz","slug":"czechy"},"coordinates":["15.651431","50.700016"],"city":"Strážné","address":"Strážné 96"},"date":"maj 2015"},"browar-miedzianka":{"id":13,"name":"Browar Miedzianka","slug":"browar-miedzianka","location":{"country":{"name":"Polska","symbol":"pl","slug":"polska"},"coordinates":["15.939254","50.877754"],"city":"Miedzianka","address":"Miedzianka 57b"},"date":"maj 2015"}},"countries":{"czechy":{"name":"Czechy","symbol":"cz","slug":"czechy","breweriesCount":39},"polska":{"name":"Polska","symbol":"pl","slug":"polska","breweriesCount":59}}}