{"name":"łódzkie, sierpień 2016","slug":"lodzkie-sierpien-2016","extremes":{"north":"51.760567","east":"18.08748","south":"51.598347","west":"19.352142"},"breweries":{"browar-restauracyjny-zloty-rog":{"id":42,"name":"Browar Restauracyjny Złoty Róg","slug":"browar-restauracyjny-zloty-rog","location":{"country":{"name":"Polska","symbol":"pl","slug":"polska"},"coordinates":["18.087480","51.760567"],"city":"Kalisz","address":"Aleja Wolności 3"},"date":"sierpień 2016"},"browar-ziemia-obiecana":{"id":43,"name":"Browar Ziemia Obiecana","slug":"browar-ziemia-obiecana","location":{"country":{"name":"Polska","symbol":"pl","slug":"polska"},"coordinates":["19.352142","51.657678"],"city":"Pabianice","address":"Orla 6\/7\/3C"},"date":"sierpień 2016"},"kolwin":{"id":44,"name":"Kolwin","slug":"kolwin","location":{"country":{"name":"Polska","symbol":"pl","slug":"polska"},"coordinates":["19.199547","51.620163"],"city":"Łask","address":"Piekarnicza 2"},"date":"sierpień 2016"},"browar-koreb":{"id":45,"name":"Browar Koreb","slug":"browar-koreb","location":{"country":{"name":"Polska","symbol":"pl","slug":"polska"},"coordinates":["19.116613","51.600528"],"city":"Łask","address":"Stefana Żeromskiego 72"},"date":"sierpień 2016"},"browar-staropolski":{"id":46,"name":"Browar Staropolski","slug":"browar-staropolski","location":{"country":{"name":"Polska","symbol":"pl","slug":"polska"},"coordinates":["18.935352","51.598347"],"city":"Zduńska Wola","address":"Świętego Maksymiliana Marii Kolbego 2"},"date":"sierpień 2016"}},"countries":{"polska":{"name":"Polska","symbol":"pl","slug":"polska","breweriesCount":63}}}