{"name":"Lwów, kwiecień 2019","slug":"lwow-kwiecien-2019","extremes":{"north":"49.847699","east":"24.015718","south":"49.839288","west":"24.037532"},"breweries":{"restoran-pivovarnya-kumpel":{"id":108,"name":"Ресторан-пивоварня Кумпель","slug":"restoran-pivovarnya-kumpel","location":{"country":{"name":"Ukraina","symbol":"ua","slug":"ukraina"},"coordinates":["24.036136","49.839288"],"city":"Львів","address":"Вынныченка 6"},"date":"kwiecień 2019"},"cheska-pivovarnya-stargorod":{"id":109,"name":"Чеська пивоварня Старгород","slug":"cheska-pivovarnya-stargorod","location":{"country":{"name":"Ukraina","symbol":"ua","slug":"ukraina"},"coordinates":["24.037532","49.839396"],"city":"Львів","address":"Республиканская 1"},"date":"kwiecień 2019"},"36po":{"id":110,"name":"36по","slug":"36po","location":{"country":{"name":"Ukraina","symbol":"ua","slug":"ukraina"},"coordinates":["24.030911","49.842393"],"city":"Львів","address":"Ринок 36"},"date":"kwiecień 2019"},"lvivska-pivovarnya":{"id":111,"name":"Львівська пивоварня","slug":"lvivska-pivovarnya","location":{"country":{"name":"Ukraina","symbol":"ua","slug":"ukraina"},"coordinates":["24.015718","49.847699"],"city":"Львів","address":"Клепарівська 18"},"date":"kwiecień 2019"},"teatr-piva-pravda":{"id":112,"name":"Театр пива Правда","slug":"teatr-piva-pravda","location":{"country":{"name":"Ukraina","symbol":"ua","slug":"ukraina"},"coordinates":["24.030382","49.842030"],"city":"Львів","address":"Ринок 32"},"date":"kwiecień 2019"},"korolivska-pivovarnya":{"id":113,"name":"Королівська Пивоварня","slug":"korolivska-pivovarnya","location":{"country":{"name":"Ukraina","symbol":"ua","slug":"ukraina"},"coordinates":["24.032198","49.840609"],"city":"Львів","address":"Староєврейська 9"},"date":"kwiecień 2019"}},"countries":{"ukraina":{"name":"Ukraina","symbol":"ua","slug":"ukraina","breweriesCount":17}}}