{"name":"pogranicze niemiecko-czeskie, sierpień 2016","slug":"pogranicze-niemiecko-czeskie-sierpien-2016","extremes":{"north":"51.115764","east":"13.86008","south":"50.53505","west":"15.087051"},"breweries":{"radeberger-exportbierbrauerei":{"id":28,"name":"Radeberger Exportbierbrauerei","slug":"radeberger-exportbierbrauerei","location":{"country":{"name":"Niemcy","symbol":"de","slug":"niemcy"},"coordinates":["13.913549","51.115764"],"city":"Radeberg","address":"Dresdener Str. 2"},"date":"sierpień 2016"},"brauhaus-pirna":{"id":29,"name":"Brauhaus Pirna","slug":"brauhaus-pirna","location":{"country":{"name":"Niemcy","symbol":"de","slug":"niemcy"},"coordinates":["13.942950","50.979910"],"city":"Pirna","address":"Basteistraße 60"},"date":"sierpień 2016"},"schlossbrauerei-weesenstein":{"id":30,"name":"Schloßbrauerei Weesenstein","slug":"schlossbrauerei-weesenstein","location":{"country":{"name":"Niemcy","symbol":"de","slug":"niemcy"},"coordinates":["13.860080","50.932620"],"city":"Müglitztal","address":"Am Schloßberg 1"},"date":"sierpień 2016"},"brauhaus-weltenbummler":{"id":31,"name":"Brauhaus Weltenbummler","slug":"brauhaus-weltenbummler","location":{"country":{"name":"Niemcy","symbol":"de","slug":"niemcy"},"coordinates":["13.946138","50.873514"],"city":"Berggiesshübel","address":"Sebastian-Kneipp-Straße 6"},"date":"sierpień 2016"},"litomericky-pivovarek-koliba":{"id":32,"name":"Litoměřický pivovárek Koliba","slug":"litomericky-pivovarek-koliba","location":{"country":{"name":"Czechy","symbol":"cz","slug":"czechy"},"coordinates":["14.135112","50.535050"],"city":"Litoměřice","address":"Českolipská 2100\/12"},"date":"sierpień 2016"},"minipivovar-labut":{"id":33,"name":"Minipivovar Labuť","slug":"minipivovar-labut","location":{"country":{"name":"Czechy","symbol":"cz","slug":"czechy"},"coordinates":["14.127025","50.537522"],"city":"Litoměřice","address":"Zítkova 784\/5"},"date":"sierpień 2016"},"biskupsky-pivovar-u-sv-stepana":{"id":34,"name":"Biskupský pivovar u sv. Štěpána","slug":"biskupsky-pivovar-u-sv-stepana","location":{"country":{"name":"Czechy","symbol":"cz","slug":"czechy"},"coordinates":["14.153247","50.536656"],"city":"Litoměřice","address":"Komenského 748\/4"},"date":"sierpień 2016"},"pivovar-breznak":{"id":35,"name":"Pivovar Březňák","slug":"pivovar-breznak","location":{"country":{"name":"Czechy","symbol":"cz","slug":"czechy"},"coordinates":["14.139121","50.664641"],"city":"Velké Březno","address":"Pivovarská 116"},"date":"sierpień 2016"},"na-rychte":{"id":36,"name":"Na Rychtě","slug":"na-rychte","location":{"country":{"name":"Czechy","symbol":"cz","slug":"czechy"},"coordinates":["14.041992","50.659741"],"city":"Ústí nad Labem","address":"Klášterní 75\/9"},"date":"sierpień 2016"},"centrum-pivovar":{"id":37,"name":"Centrum Pivovar","slug":"centrum-pivovar","location":{"country":{"name":"Czechy","symbol":"cz","slug":"czechy"},"coordinates":["14.193125","50.772446"],"city":"Děčín","address":"Sofijská 2\/3"},"date":"sierpień 2016"},"pivovar-kotouc":{"id":38,"name":"Pivovar Kotouč","slug":"pivovar-kotouc","location":{"country":{"name":"Czechy","symbol":"cz","slug":"czechy"},"coordinates":["14.414845","50.798033"],"city":"Česká Kamenice","address":"Pivovarská 3"},"date":"sierpień 2016"},"minipivovar-skalicky-budulinek":{"id":39,"name":"Minipivovar Skalický Budulínek","slug":"minipivovar-skalicky-budulinek","location":{"country":{"name":"Czechy","symbol":"cz","slug":"czechy"},"coordinates":["14.525247","50.741642"],"city":"Skalice u České Lípy","address":"Skalice u České Lípy 464"},"date":"sierpień 2016"},"pivovar-cvikov":{"id":40,"name":"Pivovar Cvikov","slug":"pivovar-cvikov","location":{"country":{"name":"Czechy","symbol":"cz","slug":"czechy"},"coordinates":["14.642248","50.776766"],"city":"Cvikov","address":"Pivovarská 405"},"date":"sierpień 2016"},"zamecky-pivovar-frydlant":{"id":41,"name":"Zámecký pivovar Frýdlant","slug":"zamecky-pivovar-frydlant","location":{"country":{"name":"Czechy","symbol":"cz","slug":"czechy"},"coordinates":["15.087051","50.914583"],"city":"Frýdlant","address":"Hejnická 4018"},"date":"sierpień 2016"}},"countries":{"niemcy":{"name":"Niemcy","symbol":"de","slug":"niemcy","breweriesCount":24},"czechy":{"name":"Czechy","symbol":"cz","slug":"czechy","breweriesCount":39}}}