{"name":"Szczecin, październik 2019","slug":"szczecin-pazdziernik-2019","extremes":{"north":"53.426094","east":"14.549771","south":"53.421644","west":"14.561868"},"breweries":{"nowy-browar-szczecin":{"id":182,"name":"Nowy Browar Szczecin","slug":"nowy-browar-szczecin","location":{"country":{"name":"Polska","symbol":"pl","slug":"polska"},"coordinates":["14.549771","53.423912"],"city":"Szczecin","address":"Partyzantów 2"},"date":"październik 2019"},"browar-stara-komenda":{"id":183,"name":"Browar Stara Komenda","slug":"browar-stara-komenda","location":{"country":{"name":"Polska","symbol":"pl","slug":"polska"},"coordinates":["14.551265","53.421644"],"city":"Szczecin","address":"Plac Batorego 3"},"date":"październik 2019"},"browar-rodzinny-wyszak":{"id":184,"name":"Browar rodzinny Wyszak","slug":"browar-rodzinny-wyszak","location":{"country":{"name":"Polska","symbol":"pl","slug":"polska"},"coordinates":["14.560190","53.424335"],"city":"Szczecin","address":"Księcia Mściwoja II 8"},"date":"październik 2019"},"browar-pod-zamkiem":{"id":185,"name":"Browar pod Zamkiem","slug":"browar-pod-zamkiem","location":{"country":{"name":"Polska","symbol":"pl","slug":"polska"},"coordinates":["14.561868","53.426094"],"city":"Szczecin","address":"Panieńska 12"},"date":"październik 2019"}},"countries":{"polska":{"name":"Polska","symbol":"pl","slug":"polska","breweriesCount":62}}}