{"name":"wschodnia Saksonia, majówka 2019","slug":"wschodnia-saksonia-majowka-2019","extremes":{"north":"51.179811","east":"13.715799","south":"51.067905","west":"14.659918"},"breweries":{"bergquell-brauerei-lobau":{"id":114,"name":"Bergquell Brauerei Löbau","slug":"bergquell-brauerei-lobau","location":{"country":{"name":"Niemcy","symbol":"de","slug":"niemcy"},"coordinates":["14.659918","51.108824"],"city":"Löbau","address":"Weststraße 7"},"date":"maj 2019"},"brauhaus-am-waldschlosschen":{"id":115,"name":"Brauhaus am Waldschlösschen","slug":"brauhaus-am-waldschlosschen","location":{"country":{"name":"Niemcy","symbol":"de","slug":"niemcy"},"coordinates":["13.778064","51.067905"],"city":"Dresden","address":"Am Brauhaus 8B"},"date":"maj 2019"},"neustadter-hausbrauerei-schwingenheuer":{"id":116,"name":"Neustädter Hausbrauerei Schwingenheuer","slug":"neustadter-hausbrauerei-schwingenheuer","location":{"country":{"name":"Niemcy","symbol":"de","slug":"niemcy"},"coordinates":["13.746962","51.069392"],"city":"Dresden","address":"Schönbrunnstraße 1"},"date":"maj 2019"},"ball-brauhaus-watzke":{"id":117,"name":"Ball & Brauhaus Watzke","slug":"ball-brauhaus-watzke","location":{"country":{"name":"Niemcy","symbol":"de","slug":"niemcy"},"coordinates":["13.715799","51.077546"],"city":"Dresden","address":"Kötzschenbroder Str. 1"},"date":"maj 2019"},"frenzel-brau":{"id":118,"name":"Frenzel-Bräu","slug":"frenzel-brau","location":{"country":{"name":"Niemcy","symbol":"de","slug":"niemcy"},"coordinates":["14.419708","51.171262"],"city":"Bautzen","address":"Humboldtstraße 21A"},"date":"maj 2019"},"bautzener-brauhaus":{"id":119,"name":"Bautzener Brauhaus","slug":"bautzener-brauhaus","location":{"country":{"name":"Niemcy","symbol":"de","slug":"niemcy"},"coordinates":["14.439666","51.179811"],"city":"Bautzen","address":"Thomas-Mann-Straße 7"},"date":"maj 2019"}},"countries":{"niemcy":{"name":"Niemcy","symbol":"de","slug":"niemcy","breweriesCount":24}}}