{"name":"wyjazd do Włoch, wakacje 2017","slug":"wyjazd-do-wloch-wakacje-2017","extremes":{"north":"49.752344","east":"13.406927","south":"45.63473","west":"16.460646"},"breweries":{"pivovarek-na-kopecku":{"id":71,"name":"Pivovárek na Kopečku","slug":"pivovarek-na-kopecku","location":{"country":{"name":"Czechy","symbol":"cz","slug":"czechy"},"coordinates":["16.460646","49.752344"],"city":"Svitavy","address":"Radiměřská 5a"},"date":"lipiec 2017"},"beaver-brewing-company":{"id":72,"name":"Beaver Brewing Company","slug":"beaver-brewing-company","location":{"country":{"name":"Austria","symbol":"at","slug":"austria"},"coordinates":["16.356967","48.224593"],"city":"Wien","address":"Liechtensteinstraße 69"},"date":"lipiec 2017"},"birrificio-cavana":{"id":73,"name":"Birrificio Cavana","slug":"birrificio-cavana","location":{"country":{"name":"Włochy","symbol":"it","slug":"wlochy"},"coordinates":["13.766490","45.648619"],"city":"Trieste","address":"Via della Pescheria 18"},"date":"lipiec 2017"},"birrificio-tazebao":{"id":74,"name":"Birrificio Tazebao","slug":"birrificio-tazebao","location":{"country":{"name":"Włochy","symbol":"it","slug":"wlochy"},"coordinates":["13.781947","45.634730"],"city":"Trieste","address":"Via Lorenzo Lorenzetti 9"},"date":"lipiec 2017"},"befed-fiumicello":{"id":75,"name":"BEFeD Fiumicello","slug":"befed-fiumicello","location":{"country":{"name":"Włochy","symbol":"it","slug":"wlochy"},"coordinates":["13.406927","45.771247"],"city":"Fiumicello","address":"Via S. Lorenzo 65"},"date":"lipiec 2017"},"pivovarna-zupanic":{"id":76,"name":"Pivovarna Zupanič","slug":"pivovarna-zupanic","location":{"country":{"name":"Słowenia","symbol":"si","slug":"slowenia"},"coordinates":["15.683892","46.540247"],"city":"Maribor","address":"Dupleška cesta 34a"},"date":"lipiec 2017"}},"countries":{"czechy":{"name":"Czechy","symbol":"cz","slug":"czechy","breweriesCount":39},"austria":{"name":"Austria","symbol":"at","slug":"austria","breweriesCount":12},"wlochy":{"name":"Włochy","symbol":"it","slug":"wlochy","breweriesCount":6},"slowenia":{"name":"Słowenia","symbol":"si","slug":"slowenia","breweriesCount":1}}}