{"label":"listopad 2016","slug":"11","extremes":{"north":"52.399243","east":"16.324822","south":"48.191933","west":"16.996839"},"breweries":[{"id":56,"name":"Lech Browary Wielkopolski","slug":"lech-browary-wielkopolski","location":{"country":{"name":"Polska","symbol":"pl","slug":"polska"},"coordinates":["16.996839","52.385371"],"city":"Poznań","address":"Szwajcarska 11"},"date":"listopad 2016"},{"id":57,"name":"Ułan Browar","slug":"ulan-browar","location":{"country":{"name":"Polska","symbol":"pl","slug":"polska"},"coordinates":["16.895479","52.399243"],"city":"Poznań","address":"Stanisława Wyspiańskiego 26"},"date":"listopad 2016"},{"id":58,"name":"Salm Bräu","slug":"salm-brau","location":{"country":{"name":"Austria","symbol":"at","slug":"austria"},"coordinates":["16.380866","48.196656"],"city":"Wien","address":"Rennweg 8"},"date":"listopad 2016"},{"id":59,"name":"Hackl Bräu","slug":"hackl-brau","location":{"country":{"name":"Austria","symbol":"at","slug":"austria"},"coordinates":["16.356069","48.191933"],"city":"Wien","address":"Reznicekgasse 3"},"date":"listopad 2016"},{"id":60,"name":"Xaver Brauerei","slug":"xaver-brauerei","location":{"country":{"name":"Austria","symbol":"at","slug":"austria"},"coordinates":["16.335273","48.207830"],"city":"Wien","address":"Hasnerstraße 14"},"date":"listopad 2016"},{"id":61,"name":"Brauwerk Wien","slug":"brauwerk-wien","location":{"country":{"name":"Austria","symbol":"at","slug":"austria"},"coordinates":["16.324822","48.212931"],"city":"Wien","address":"Ottakringer Pl. 1"},"date":"listopad 2016"},{"id":62,"name":"Stiegl-Ambulanz","slug":"stiegl-ambulanz","location":{"country":{"name":"Austria","symbol":"at","slug":"austria"},"coordinates":["16.352157","48.216479"],"city":"Wien","address":"Alser Str. 4"},"date":"listopad 2016"},{"id":63,"name":"7Sternbräu","slug":"7sternbrau","location":{"country":{"name":"Austria","symbol":"at","slug":"austria"},"coordinates":["16.353532","48.202180"],"city":"Wien","address":"Siebensterngasse 19"},"date":"listopad 2016"},{"id":64,"name":"Highlander","slug":"highlander","location":{"country":{"name":"Austria","symbol":"at","slug":"austria"},"coordinates":["16.353487","48.226919"],"city":"Wien","address":"Sobieskipl. 4"},"date":"listopad 2016"},{"id":65,"name":"Fischerbräu","slug":"fischerbrau","location":{"country":{"name":"Austria","symbol":"at","slug":"austria"},"coordinates":["16.350767","48.234745"],"city":"Wien","address":"Billrothstraße 17"},"date":"listopad 2016"}]}