{
  "name": "łódzkie, sierpień 2016",
  "breweries": [
    {
      "name": "Browar Restauracyjny Złoty Róg",
      "visited": "2016-08-18",
      "location": {
        "country": "pl",
        "city": "Kalisz",
        "address": "Aleja Wolności 3",
        "coordinates": {
          "lat": 51.760567,
          "lng": 18.08748
        }
      },
      "tags": [
        "piwo spróbowane na miejscu",
        "obejrzany sprzęt",
        "browar restauracyjny",
        "instalacja Kaspar Schulz",
        "województwo wielkopolskie"
      ]
    },
    {
      "name": "Browar Ziemia Obiecana",
      "visited": "2016-08-19",
      "location": {
        "country": "pl",
        "city": "Pabianice",
        "address": "Orla 6\/7\/3C",
        "coordinates": {
          "lat": 51.657678,
          "lng": 19.352142
        }
      },
      "tags": [
        "piwo spróbowane na miejscu",
        "piwo spróbowane z tanka",
        "piwo spróbowane poza browarem",
        "obejrzany sprzęt",
        "spotkanie z piwowarem",
        "mikrobrowar",
        "województwo łódzkie"
      ]
    },
    {
      "name": "Kolwin",
      "visited": "2016-08-19",
      "location": {
        "country": "pl",
        "city": "Łask",
        "address": "Piekarnicza 2",
        "coordinates": {
          "lat": 51.620163,
          "lng": 19.199547
        }
      },
      "tags": [
        "obejrzany sprzęt",
        "mikrobrowar",
        "województwo łódzkie"
      ]
    },
    {
      "name": "Browar Koreb",
      "visited": "2016-08-19",
      "location": {
        "country": "pl",
        "city": "Łask",
        "address": "Stefana Żeromskiego 72",
        "coordinates": {
          "lat": 51.600528,
          "lng": 19.116613
        }
      },
      "tags": [
        "obejrzany sprzęt",
        "przybrowarniany sklep",
        "piwo spróbowane na wynos",
        "mikrobrowar",
        "województwo łódzkie"
      ]
    },
    {
      "name": "Browar Staropolski",
      "visited": "2016-08-19",
      "location": {
        "country": "pl",
        "city": "Zduńska Wola",
        "address": "Świętego Maksymiliana Marii Kolbego 2",
        "coordinates": {
          "lat": 51.598347,
          "lng": 18.935352
        }
      },
      "tags": [
        "przybrowarniany sklep",
        "piwo spróbowane na wynos",
        "piwo spróbowane poza browarem",
        "browar regionalny",
        "województwo łódzkie"
      ]
    }
  ]
}