{
  "name": "pogranicze niemiecko-czeskie, sierpień 2016",
  "breweries": [
    {
      "name": "Radeberger Exportbierbrauerei",
      "visited": "2016-08-14",
      "location": {
        "country": "de",
        "city": "Radeberg",
        "address": "Dresdener Str. 2",
        "coordinates": {
          "lat": 51.115764,
          "lng": 13.913549
        }
      },
      "tags": [
        "koncern Radeberger",
        "piwo spróbowane na miejscu",
        "browar koncernowy",
        "przybrowarniana restauracja",
        "kraj związkowy Saksonia"
      ]
    },
    {
      "name": "Brauhaus Pirna",
      "visited": "2016-08-14",
      "location": {
        "country": "de",
        "city": "Pirna",
        "address": "Basteistraße 60",
        "coordinates": {
          "lat": 50.97991,
          "lng": 13.94295
        }
      },
      "tags": [
        "piwo spróbowane na miejscu",
        "obejrzany sprzęt",
        "browar restauracyjny",
        "kraj związkowy Saksonia"
      ]
    },
    {
      "name": "Schloßbrauerei Weesenstein",
      "visited": "2016-08-14",
      "location": {
        "country": "de",
        "city": "Müglitztal",
        "address": "Am Schloßberg 1",
        "coordinates": {
          "lat": 50.93262,
          "lng": 13.86008
        }
      },
      "tags": [
        "piwo spróbowane na miejscu",
        "obejrzany sprzęt",
        "browar restauracyjny",
        "spotkanie z piwowarem",
        "browar na zamku",
        "kraj związkowy Saksonia"
      ]
    },
    {
      "name": "Brauhaus Weltenbummler",
      "visited": "2016-08-14",
      "location": {
        "country": "de",
        "city": "Bad Gottleuba-Berggießhübel",
        "address": "Sebastian-Kneipp-Straße 6",
        "coordinates": {
          "lat": 50.873514,
          "lng": 13.946138
        }
      },
      "tags": [
        "piwo spróbowane na miejscu",
        "obejrzany sprzęt",
        "browar restauracyjny",
        "kraj związkowy Saksonia"
      ]
    },
    {
      "name": "Litoměřický pivovárek Koliba",
      "visited": "2016-08-14",
      "location": {
        "country": "cz",
        "city": "Litoměřice",
        "address": "Českolipská 2100\/12",
        "coordinates": {
          "lat": 50.53505,
          "lng": 14.135112
        }
      },
      "tags": [
        "piwo spróbowane na wynos",
        "obejrzany sprzęt",
        "przybrowarniany sklep",
        "browar hotelowy",
        "kraj ustecki"
      ]
    },
    {
      "name": "Minipivovar Labuť",
      "visited": "2016-08-14",
      "location": {
        "country": "cz",
        "city": "Litoměřice",
        "address": "Zítkova 784\/5",
        "coordinates": {
          "lat": 50.537522,
          "lng": 14.127025
        }
      },
      "tags": [
        "piwo spróbowane na miejscu",
        "obejrzany sprzęt",
        "browar restauracyjny",
        "kraj ustecki",
        "instalacja MBS"
      ]
    },
    {
      "name": "Biskupský pivovar u sv. Štěpána",
      "visited": "2016-08-14",
      "location": {
        "country": "cz",
        "city": "Litoměřice",
        "address": "Komenského 748/4",
        "coordinates": {
          "lat": 50.536656,
          "lng": 14.153247
        }
      },
      "tags": [
        "piwo spróbowane na miejscu",
        "obejrzany sprzęt",
        "browar restauracyjny",
        "kraj ustecki"
      ]
    },
    {
      "name": "Pivovar Březňák",
      "visited": "2016-08-15",
      "location": {
        "country": "cz",
        "city": "Velké Březno",
        "address": "Pivovarská 116",
        "coordinates": {
          "lat": 50.664641,
          "lng": 14.139121
        }
      },
      "tags": [
        "piwo spróbowane na miejscu",
        "browar regionalny",
        "przybrowarniana restauracja",
        "koncern Heineken",
        "kraj ustecki"
      ]
    },
    {
      "name": "Na Rychtě",
      "visited": "2016-08-15",
      "location": {
        "country": "cz",
        "city": "Ústí nad Labem",
        "address": "Klášterní 75\/9",
        "coordinates": {
          "lat": 50.659741,
          "lng": 14.041992
        }
      },
      "tags": [
        "piwo spróbowane na miejscu",
        "obejrzany sprzęt",
        "browar restauracyjny",
        "kraj ustecki"
      ]
    },
    {
      "name": "Centrum Pivovar",
      "visited": "2016-08-15",
      "location": {
        "country": "cz",
        "city": "Děčín",
        "address": "Sofijská 2\/3",
        "coordinates": {
          "lat": 50.772446,
          "lng": 14.193125
        }
      },
      "tags": [
        "browar w galerii handlowej",
        "piwo spróbowane na miejscu",
        "obejrzany sprzęt",
        "browar restauracyjny",
        "kraj ustecki"
      ]
    },
    {
      "name": "Pivovar Kotouč",
      "visited": "2016-08-15",
      "location": {
        "country": "cz",
        "city": "Česká Kamenice",
        "address": "Pivovarská 3",
        "coordinates": {
          "lat": 50.798033,
          "lng": 14.414845
        }
      },
      "tags": [
        "piwo spróbowane na miejscu",
        "obejrzany sprzęt",
        "browar restauracyjny",
        "kraj ustecki",
        "wielokrotnie odwiedzony"
      ]
    },
    {
      "name": "Minipivovar Skalický Budulínek",
      "visited": "2016-08-15",
      "location": {
        "country": "cz",
        "city": "Skalice u České Lípy",
        "address": "Skalice u České Lípy 464",
        "coordinates": {
          "lat": 50.741642,
          "lng": 14.525247
        }
      },
      "tags": [
        "obejrzany sprzęt",
        "spotkanie z piwowarem",
        "przybrowarniany sklep",
        "piwo spróbowane na wynos",
        "mikrobrowar",
        "kraj liberecki",
        "obecnie zamknięty"
      ]
    },
    {
      "name": "Pivovar Cvikov",
      "visited": "2016-08-15",
      "location": {
        "country": "cz",
        "city": "Cvikov",
        "address": "Pivovarská 405",
        "coordinates": {
          "lat": 50.776766,
          "lng": 14.642248
        }
      },
      "tags": [
        "piwo spróbowane na miejscu",
        "obejrzany sprzęt",
        "browar restauracyjny",
        "kraj liberecki"
      ]
    },
    {
      "name": "Zámecký pivovar Frýdlant",
      "visited": "2016-08-15",
      "location": {
        "country": "cz",
        "city": "Frýdlant",
        "address": "Hejnická 4018",
        "coordinates": {
          "lat": 50.914583,
          "lng": 15.087051
        }
      },
      "tags": [
        "piwo spróbowane na miejscu",
        "przybrowarniany sklep",
        "browar regionalny",
        "kraj liberecki"
      ]
    }
  ]
}