{
  "name": "Wiedeń, listopad 2016",
  "breweries": [
    {
      "name": "Salm Bräu",
      "visited": "2016-11-11",
      "location": {
        "country": "at",
        "city": "Wien",
        "address": "Rennweg 8",
        "coordinates": {
          "lat": 48.196656,
          "lng": 16.380866
        }
      },
      "alternativeNames": {
        "city": "Wiedeń"
      },
      "tags": [
        "piwo spróbowane na miejscu",
        "obejrzany sprzęt",
        "browar restauracyjny"
      ]
    },
    {
      "name": "Hackl Bräu",
      "visited": "2016-11-11",
      "location": {
        "country": "at",
        "city": "Wien",
        "address": "Reznicekgasse 3",
        "coordinates": {
          "lat": 48.191933,
          "lng": 16.356069
        }
      },
      "alternativeNames": {
        "city": "Wiedeń"
      },
      "tags": [
        "obecnie zamknięty",
        "piwo spróbowane na miejscu",
        "obejrzany sprzęt",
        "browar restauracyjny"
      ]
    },
    {
      "name": "Xaver Brauerei",
      "visited": "2016-11-11",
      "location": {
        "country": "at",
        "city": "Wien",
        "address": "Hasnerstraße 14",
        "coordinates": {
          "lat": 48.20783,
          "lng": 16.335273
        }
      },
      "alternativeNames": {
        "city": "Wiedeń"
      },
      "tags": [
        "piwo spróbowane na miejscu",
        "obejrzany sprzęt",
        "spotkanie z piwowarem",
        "mikrobrowar"
      ]
    },
    {
      "name": "Brauwerk Wien",
      "visited": "2016-11-11",
      "location": {
        "country": "at",
        "city": "Wien",
        "address": "Ottakringer Pl. 1",
        "coordinates": {
          "lat": 48.212931,
          "lng": 16.324822
        }
      },
      "alternativeNames": {
        "city": "Wiedeń"
      },
      "tags": [
        "piwo spróbowane na miejscu",
        "obejrzany sprzęt",
        "browar restauracyjny",
        "spotkanie z piwowarem"
      ]
    },
    {
      "name": "Stiegl-Ambulanz",
      "visited": "2016-11-12",
      "location": {
        "country": "at",
        "city": "Wien",
        "address": "Alser Str. 4",
        "coordinates": {
          "lat": 48.216479,
          "lng": 16.352157
        }
      },
      "alternativeNames": {
        "city": "Wiedeń"
      },
      "tags": [
        "piwo spróbowane na miejscu",
        "obejrzany sprzęt",
        "browar restauracyjny",
        "sieć Stiegl"
      ]
    },
    {
      "name": "7Sternbräu",
      "visited": "2016-11-12",
      "location": {
        "country": "at",
        "city": "Wien",
        "address": "Siebensterngasse 19",
        "coordinates": {
          "lat": 48.20218,
          "lng": 16.353532
        }
      },
      "alternativeNames": {
        "city": "Wiedeń"
      },
      "tags": [
        "piwo spróbowane na miejscu",
        "obejrzany sprzęt",
        "browar restauracyjny"
      ]
    },
    {
      "name": "Highlander",
      "visited": "2016-11-12",
      "location": {
        "country": "at",
        "city": "Wien",
        "address": "Sobieskipl. 4",
        "coordinates": {
          "lat": 48.226919,
          "lng": 16.353487
        }
      },
      "alternativeNames": {
        "city": "Wiedeń"
      },
      "tags": [
        "piwo spróbowane na miejscu",
        "obejrzany sprzęt",
        "browar restauracyjny"
      ]
    },
    {
      "name": "Fischerbräu",
      "visited": "2016-11-12",
      "location": {
        "country": "at",
        "city": "Wien",
        "address": "Billrothstraße 17",
        "coordinates": {
          "lat": 48.234745,
          "lng": 16.350767
        }
      },
      "alternativeNames": {
        "city": "Wiedeń"
      },
      "tags": [
        "piwo spróbowane na miejscu",
        "obejrzany sprzęt",
        "browar restauracyjny"
      ]
    }
  ]
}