{
  "name": "Kraków i okolice, wrzesień 2016",
  "breweries": [
    {
      "name": "Pracownia Piwa",
      "visited": "2016-09-09",
      "location": {
        "country": "pl",
        "city": "Modlniczka",
        "address": "Kasztanowa 31",
        "coordinates": {
          "lat": 50.108962,
          "lng": 19.838354
        }
      },
      "tags": [
        "piwo spróbowane na miejscu",
        "obejrzany sprzęt",
        "przybrowarniany sklep",
        "spotkanie z piwowarem",
        "mikrobrowar"
      ]
    },
    {
      "name": "Browar Tenczynek",
      "visited": "2016-09-09",
      "location": {
        "country": "pl",
        "city": "Tenczynek",
        "address": "Tenczyńska 59",
        "coordinates": {
          "lat": 50.119972,
          "lng": 19.613174
        }
      },
      "tags": [
        "piwo spróbowane na miejscu",
        "piwo spróbowane z tanka",
        "obejrzany sprzęt",
        "zorganizowana wycieczka",
        "spotkanie z piwowarem",
        "browar regionalny"
      ]
    },
    {
      "name": "C.K. Browar",
      "visited": "2016-09-10",
      "location": {
        "country": "pl",
        "city": "Kraków",
        "address": "Podwale 6",
        "coordinates": {
          "lat": 50.063393,
          "lng": 19.932708
        }
      },
      "tags": [
        "piwo spróbowane na miejscu",
        "obejrzany sprzęt",
        "browar restauracyjny"
      ]
    },
    {
      "name": "Browar Lubicz",
      "visited": "2016-09-10",
      "location": {
        "country": "pl",
        "city": "Kraków",
        "address": "Lubicz 17J",
        "coordinates": {
          "lat": 50.064464,
          "lng": 19.949279
        }
      },
      "tags": [
        "piwo spróbowane na miejscu",
        "obejrzany sprzęt",
        "browar restauracyjny"
      ]
    },
    {
      "name": "TEA Time Brewpub",
      "visited": "2016-09-11",
      "location": {
        "country": "pl",
        "city": "Kraków",
        "address": "Dietla 1",
        "coordinates": {
          "lat": 50.050066,
          "lng": 19.936604
        }
      },
      "tags": [
        "piwo spróbowane na miejscu",
        "obejrzany sprzęt",
        "browar restauracyjny"
      ]
    },
    {
      "name": "Stara Zajezdnia Kraków by DeSilva",
      "visited": "2016-09-11",
      "location": {
        "country": "pl",
        "city": "Kraków",
        "address": "Świętego Wawrzyńca 12",
        "coordinates": {
          "lat": 50.050119,
          "lng": 19.947116
        }
      },
      "tags": [
        "piwo spróbowane na miejscu",
        "obejrzany sprzęt",
        "browar restauracyjny"
      ]
    }
  ]
}