{
  "name": "wyjazd do Włoch, wakacje 2017",
  "breweries": [
    {
      "name": "Pivovárek na Kopečku",
      "visited": "2017-07-22",
      "location": {
        "country": "cz",
        "city": "Svitavy",
        "address": "Radiměřská 5a",
        "coordinates": {
          "lat": 49.752344,
          "lng": 16.460646
        }
      },
      "tags": [
        "piwo spróbowane na miejscu",
        "obejrzany sprzęt",
        "browar restauracyjny"
      ]
    },
    {
      "name": "Beaver Brewing Company",
      "visited": "2017-07-23",
      "location": {
        "country": "at",
        "city": "Wien",
        "address": "Liechtensteinstraße 69",
        "coordinates": {
          "lat": 48.224593,
          "lng": 16.356967
        }
      },
      "tags": [
        "piwo spróbowane na miejscu",
        "obejrzany sprzęt",
        "browar restauracyjny"
      ]
    },
    {
      "name": "Birrificio Cavana",
      "visited": "2017-07-26",
      "location": {
        "country": "it",
        "city": "Trieste",
        "address": "Via della Pescheria 18",
        "coordinates": {
          "lat": 45.648619,
          "lng": 13.76649
        }
      },
      "tags": [
        "piwo spróbowane na miejscu",
        "obejrzany sprzęt",
        "browar restauracyjny"
      ]
    },
    {
      "name": "Birrificio Tazebao",
      "visited": "2017-07-26",
      "location": {
        "country": "it",
        "city": "Trieste",
        "address": "Via Lorenzo Lorenzetti 9",
        "coordinates": {
          "lat": 45.63473,
          "lng": 13.781947
        }
      },
      "tags": [
        "browar restauracyjny",
        "obejrzany sprzęt"
      ]
    },
    {
      "name": "BEFeD Fiumicello",
      "visited": "2017-07-29",
      "location": {
        "country": "it",
        "city": "Fiumicello",
        "address": "Via S. Lorenzo 65",
        "coordinates": {
          "lat": 45.771247,
          "lng": 13.406927
        }
      },
      "tags": [
        "piwo spróbowane na miejscu",
        "obejrzany sprzęt",
        "browar restauracyjny",
        "sieć BEFeD"
      ]
    },
    {
      "name": "Pivovarna Zupanič",
      "visited": "2017-07-30",
      "location": {
        "country": "si",
        "city": "Maribor",
        "address": "Dupleška cesta 34a",
        "coordinates": {
          "lat": 46.540247,
          "lng": 15.683892
        }
      },
      "tags": [
        "piwo spróbowane na miejscu",
        "obejrzany sprzęt",
        "browar restauracyjny"
      ]
    }
  ]
}