{
  "name": "Amsterdam, listopad 2018",
  "breweries": [
    {
      "name": "Heineken Experience",
      "visited": "2018-11-02",
      "location": {
        "country": "nl",
        "city": "Amsterdam",
        "address": "Stadhouderskade 78",
        "coordinates": {
          "lat": 52.357833,
          "lng": 4.891825
        }
      },
      "tags": [
        "piwo spróbowane na miejscu",
        "obejrzany sprzęt",
        "zorganizowana wycieczka",
        "muzeum",
        "koncern Heineken",
        "browar koncernowy"
      ]
    },
    {
      "name": "Brouwerij Homeland",
      "visited": "2018-11-02",
      "location": {
        "country": "nl",
        "city": "Amsterdam",
        "address": "Kattenburgerstraat 5",
        "coordinates": {
          "lat": 52.373034,
          "lng": 4.916755
        }
      },
      "tags": [
        "piwo spróbowane na miejscu",
        "obejrzany sprzęt",
        "spotkanie z piwowarem",
        "browar restauracyjny"
      ]
    },
    {
      "name": "Brouwerij 't IJ",
      "visited": "2018-11-02",
      "location": {
        "country": "nl",
        "city": "Amsterdam",
        "address": "Funenkade 7",
        "coordinates": {
          "lat": 52.366697,
          "lng": 4.926416
        }
      },
      "tags": [
        "piwo spróbowane na miejscu",
        "obejrzany sprzęt",
        "mikrobrowar"
      ]
    },
    {
      "name": "Oedipus Brewing",
      "visited": "2018-11-02",
      "location": {
        "country": "nl",
        "city": "Amsterdam",
        "address": "Gedempt Hamerkanaal 85",
        "coordinates": {
          "lat": 52.383559,
          "lng": 4.921233
        }
      },
      "tags": [
        "piwo spróbowane na miejscu",
        "obejrzany sprzęt",
        "mikrobrowar"
      ]
    },
    {
      "name": "Walhalla Brouwerij",
      "visited": "2018-11-02",
      "location": {
        "country": "nl",
        "city": "Amsterdam",
        "address": "Spijkerkade 10",
        "coordinates": {
          "lat": 52.385424,
          "lng": 4.920534
        }
      },
      "tags": [
        "piwo spróbowane na miejscu",
        "obejrzany sprzęt",
        "mikrobrowar"
      ]
    },
    {
      "name": "De Bekeerde Suster",
      "visited": "2018-11-03",
      "location": {
        "country": "nl",
        "city": "Amsterdam",
        "address": "Kloveniersburgwal 6",
        "coordinates": {
          "lat": 52.37207,
          "lng": 4.89924
        }
      },
      "tags": [
        "piwo spróbowane na miejscu",
        "obejrzany sprzęt",
        "browar restauracyjny"
      ]
    },
    {
      "name": "Brouwerij de Prael",
      "visited": "2018-11-03",
      "location": {
        "country": "nl",
        "city": "Amsterdam",
        "address": "Oudezijds Armsteeg 20",
        "coordinates": {
          "lat": 52.375484,
          "lng": 4.899736
        }
      },
      "tags": [
        "piwo spróbowane na miejscu",
        "obejrzany sprzęt",
        "browar restauracyjny"
      ]
    },
    {
      "name": "Bierfabriek Amsterdam",
      "visited": "2018-11-03",
      "location": {
        "country": "nl",
        "city": "Amsterdam",
        "address": "Nes 67",
        "coordinates": {
          "lat": 52.370059,
          "lng": 4.893586
        }
      },
      "tags": [
        "piwo spróbowane na miejscu",
        "obejrzany sprzęt",
        "browar restauracyjny"
      ]
    },
    {
      "name": "Poesiat & Kater",
      "visited": "2018-11-04",
      "location": {
        "country": "nl",
        "city": "Amsterdam",
        "address": "Polderweg 648",
        "coordinates": {
          "lat": 52.35767,
          "lng": 4.935709
        }
      },
      "tags": [
        "piwo spróbowane na miejscu",
        "obejrzany sprzęt",
        "browar restauracyjny"
      ]
    }
  ]
}