{
  "name": "Lwów, kwiecień 2019",
  "breweries": [
    {
      "name": "Ресторан-пивоварня Кумпель",
      "visited": "2019-04-06",
      "location": {
        "country": "ua",
        "city": "Львів",
        "address": "Вынныченка 6",
        "coordinates": {
          "lat": 49.839288,
          "lng": 24.036136
        }
      },
      "tags": [
        "piwo spróbowane na miejscu",
        "obejrzany sprzęt",
        "browar restauracyjny",
        "instalacja Ziptech"
      ]
    },
    {
      "name": "Чеська пивоварня Старгород",
      "visited": "2019-04-06",
      "location": {
        "country": "ua",
        "city": "Львів",
        "address": "Республиканская 1",
        "coordinates": {
          "lat": 49.839396,
          "lng": 24.037532
        }
      },
      "tags": [
        "piwo spróbowane na miejscu",
        "obejrzany sprzęt",
        "browar restauracyjny"
      ]
    },
    {
      "name": "36по",
      "visited": "2019-04-06",
      "location": {
        "country": "ua",
        "city": "Львів",
        "address": "Ринок 36",
        "coordinates": {
          "lat": 49.842393,
          "lng": 24.030911
        }
      },
      "tags": [
        "piwo spróbowane na miejscu",
        "obejrzany sprzęt",
        "brewpub"
      ]
    },
    {
      "name": "Львівська пивоварня",
      "visited": "2019-04-07",
      "location": {
        "country": "ua",
        "city": "Львів",
        "address": "Клепарівська 18",
        "coordinates": {
          "lat": 49.847699,
          "lng": 24.015718
        }
      },
      "tags": [
        "koncern Carlsberg",
        "piwo spróbowane na miejscu",
        "zorganizowana wycieczka",
        "muzeum",
        "browar koncernowy"
      ]
    },
    {
      "name": "Театр пива Правда",
      "visited": "2019-04-07",
      "location": {
        "country": "ua",
        "city": "Львів",
        "address": "Ринок 32",
        "coordinates": {
          "lat": 49.84203,
          "lng": 24.030382
        }
      },
      "tags": [
        "piwo spróbowane na miejscu",
        "obejrzany sprzęt",
        "browar restauracyjny",
        "brewpub"
      ]
    },
    {
      "name": "Королівська Пивоварня",
      "visited": "2019-04-07",
      "location": {
        "country": "ua",
        "city": "Львів",
        "address": "Староєврейська 9",
        "coordinates": {
          "lat": 49.840609,
          "lng": 24.032198
        }
      },
      "tags": [
        "piwo spróbowane na miejscu",
        "obejrzany sprzęt",
        "browar restauracyjny"
      ]
    }
  ]
}