{
  "name": "wschodnia Saksonia, majówka 2019",
  "breweries": [
    {
      "name": "Bergquell Brauerei Löbau",
      "visited": "2019-05-02",
      "location": {
        "country": "de",
        "city": "Löbau",
        "address": "Weststraße 7",
        "coordinates": {
          "lat": 51.108824,
          "lng": 14.659918
        }
      },
      "tags": [
        "przybrowarniany sklep",
        "browar regionalny"
      ]
    },
    {
      "name": "Brauhaus am Waldschlösschen",
      "visited": "2019-05-02",
      "location": {
        "country": "de",
        "city": "Dresden",
        "address": "Am Brauhaus 8B",
        "coordinates": {
          "lat": 51.067905,
          "lng": 13.778064
        }
      },
      "alternativeNames": {
        "city": "Drezno"
      },
      "tags": [
        "piwo spróbowane na miejscu",
        "obejrzany sprzęt",
        "browar restauracyjny"
      ]
    },
    {
      "name": "Neustädter Hausbrauerei Schwingenheuer",
      "visited": "2019-05-02",
      "location": {
        "country": "de",
        "city": "Dresden",
        "address": "Schönbrunnstraße 1",
        "coordinates": {
          "lat": 51.069392,
          "lng": 13.746962
        }
      },
      "alternativeNames": {
        "city": "Drezno"
      },
      "tags": [
        "piwo spróbowane na wynos",
        "przybrowarniany sklep",
        "obejrzany sprzęt"
      ]
    },
    {
      "name": "Ball & Brauhaus Watzke",
      "visited": "2019-05-02",
      "location": {
        "country": "de",
        "city": "Dresden",
        "address": "Kötzschenbroder Str. 1",
        "coordinates": {
          "lat": 51.077546,
          "lng": 13.715799
        }
      },
      "alternativeNames": {
        "city": "Drezno"
      },
      "tags": [
        "piwo spróbowane na miejscu",
        "obejrzany sprzęt",
        "browar restauracyjny"
      ]
    },
    {
      "name": "Frenzel-Bräu",
      "visited": "2019-05-02",
      "location": {
        "country": "de",
        "city": "Bautzen",
        "address": "Humboldtstraße 21A",
        "coordinates": {
          "lat": 51.171262,
          "lng": 14.419708
        }
      },
      "alternativeNames": {
        "city": "Budziszyn"
      },
      "tags": [
        "piwo spróbowane na miejscu",
        "przybrowarniany sklep",
        "obejrzany sprzęt",
        "spotkanie z piwowarem"
      ]
    },
    {
      "name": "Bautzener Brauhaus",
      "visited": "2019-05-02",
      "location": {
        "country": "de",
        "city": "Bautzen",
        "address": "Thomas-Mann-Straße 7",
        "coordinates": {
          "lat": 51.179811,
          "lng": 14.439666
        }
      },
      "alternativeNames": {
        "city": "Budziszyn"
      },
      "tags": [
        "piwo spróbowane na miejscu",
        "obejrzany sprzęt",
        "browar restauracyjny"
      ]
    }
  ]
}