{
  "name": "kraj ołomuniecki, sierpień 2019",
  "breweries": [
    {
      "name": "Svatováclavský Pivovar",
      "visited": "2019-08-04",
      "location": {
        "country": "cz",
        "city": "Olomouc",
        "address": "Mariánská 845\/4",
        "coordinates": {
          "lat": 49.595876,
          "lng": 17.258709
        }
      },
      "tags": [
        "piwo spróbowane na miejscu",
        "browar restauracyjny",
        "obejrzany sprzęt"
      ]
    },
    {
      "name": "Hostinský pivovar Moritz",
      "visited": "2019-08-04",
      "location": {
        "country": "cz",
        "city": "Olomouc",
        "address": "Nešverova 2",
        "coordinates": {
          "lat": 49.590624,
          "lng": 17.249779
        }
      },
      "tags": [
        "browar restauracyjny",
        "piwo spróbowane na miejscu",
        "obejrzany sprzęt"
      ]
    },
    {
      "name": "Pivovar Chomout",
      "visited": "2019-08-04",
      "location": {
        "country": "cz",
        "city": "Olomouc",
        "address": "Dalimilova 18\/92",
        "coordinates": {
          "lat": 49.641736,
          "lng": 17.231346
        }
      },
      "tags": [
        "piwo spróbowane na miejscu",
        "browar restauracyjny",
        "obejrzany sprzęt"
      ]
    },
    {
      "name": "Pivovar Welzl",
      "visited": "2019-08-04",
      "location": {
        "country": "cz",
        "city": "Zábřeh",
        "address": "Krumpach 2057\/24A",
        "coordinates": {
          "lat": 49.887987,
          "lng": 16.861102
        }
      },
      "tags": [
        "browar restauracyjny",
        "piwo spróbowane na miejscu",
        "obejrzany sprzęt"
      ]
    }
  ]
}