{
  "name": "Kijów, lipiec 2019",
  "breweries": [
    {
      "name": "Портер Паб (Хрещатик)",
      "visited": "2019-07-24",
      "location": {
        "country": "ua",
        "city": "Київ",
        "address": "вул. Хрещатик, 15\/4",
        "coordinates": {
          "lat": 50.447535,
          "lng": 30.523882
        }
      },
      "tags": [
        "sieć Porter Pub",
        "piwo spróbowane na miejscu",
        "browar restauracyjny",
        "instalacja S-Brewery"
      ]
    },
    {
      "name": "Шато Robert Doms",
      "visited": "2019-07-24",
      "location": {
        "country": "ua",
        "city": "Київ",
        "address": "вул. Хрещатик, 24",
        "coordinates": {
          "lat": 50.448288,
          "lng": 30.522006
        }
      },
      "tags": [
        "koncern Carlsberg",
        "piwo spróbowane na miejscu",
        "browar restauracyjny",
        "obecnie zamknięty"
      ]
    },
    {
      "name": "Арена Beer House",
      "visited": "2019-07-24",
      "location": {
        "country": "ua",
        "city": "Київ",
        "address": "вул. Басейна, 2а",
        "coordinates": {
          "lat": 50.441513,
          "lng": 30.521249
        }
      },
      "tags": [
        "browar w galerii handlowej",
        "piwo spróbowane na miejscu",
        "obejrzany sprzęt",
        "browar restauracyjny",
        "instalacja Wachsmann",
        "obecnie zamknięty"
      ]
    },
    {
      "name": "Пиваріум",
      "visited": "2019-07-25",
      "location": {
        "country": "ua",
        "city": "Київ",
        "address": "проспект Перемоги, 31",
        "coordinates": {
          "lat": 50.450462,
          "lng": 30.468369
        }
      },
      "tags": [
        "piwo spróbowane na miejscu",
        "obejrzany sprzęt",
        "browar restauracyjny",
        "obecnie zamknięty"
      ]
    },
    {
      "name": "Фрау Роза",
      "visited": "2019-07-25",
      "location": {
        "country": "ua",
        "city": "Київ",
        "address": "вул. Василя Липківського, 1А",
        "coordinates": {
          "lat": 50.435749,
          "lng": 30.49012
        }
      },
      "tags": [
        "browar w galerii handlowej",
        "piwo spróbowane na miejscu",
        "obejrzany sprzęt",
        "browar restauracyjny",
        "instalacja Ziptech",
        "obecnie zamknięty"
      ]
    },
    {
      "name": "Портер Паб (Костянтинівська)",
      "visited": "2019-07-26",
      "location": {
        "country": "ua",
        "city": "Київ",
        "address": "вул. Костянтинівська, 2А",
        "coordinates": {
          "lat": 50.465303,
          "lng": 30.515671
        }
      },
      "tags": [
        "sieć Porter Pub",
        "piwo spróbowane na miejscu",
        "browar restauracyjny",
        "instalacja S-Brewery"
      ]
    },
    {
      "name": "Ресторан-Паб Проходимецъ",
      "visited": "2019-07-26",
      "location": {
        "country": "ua",
        "city": "Київ",
        "address": "вул. Костянтинівська, 37",
        "coordinates": {
          "lat": 50.468964,
          "lng": 30.508435
        }
      },
      "tags": [
        "piwo spróbowane na miejscu",
        "obejrzany sprzęt",
        "browar restauracyjny",
        "instalacja S-Brewery"
      ]
    },
    {
      "name": "Літпаб Крапка Кома",
      "visited": "2019-07-26",
      "location": {
        "country": "ua",
        "city": "Київ",
        "address": "вул. Антоновича, 14",
        "coordinates": {
          "lat": 50.43796,
          "lng": 30.513223
        }
      },
      "tags": [
        "piwo spróbowane na miejscu",
        "browar restauracyjny",
        "obecnie zamknięty"
      ]
    },
    {
      "name": "To Dublin",
      "visited": "2019-07-27",
      "location": {
        "country": "ua",
        "city": "Київ",
        "address": "вул. Раїси Окіпної, 4",
        "coordinates": {
          "lat": 50.449775,
          "lng": 30.595857
        }
      },
      "tags": [
        "piwo spróbowane na miejscu",
        "obejrzany sprzęt",
        "browar restauracyjny",
        "instalacja Kaspar Schulz"
      ]
    },
    {
      "name": "Синдикат",
      "visited": "2019-07-27",
      "location": {
        "country": "ua",
        "city": "Київ",
        "address": "вул. Михайла Омеляновича-Павленка, 6",
        "coordinates": {
          "lat": 50.439544,
          "lng": 30.548349
        }
      },
      "tags": [
        "piwo spróbowane na miejscu",
        "obejrzany sprzęt",
        "browar restauracyjny"
      ]
    },
    {
      "name": "Броварня Шульц",
      "visited": "2019-07-28",
      "location": {
        "country": "ua",
        "city": "Київ",
        "address": "площа Перемоги, 3",
        "coordinates": {
          "lat": 50.446478,
          "lng": 30.491302
        }
      },
      "tags": [
        "browar w galerii handlowej",
        "piwo spróbowane na miejscu",
        "obejrzany sprzęt",
        "browar restauracyjny",
        "instalacja S-Brewery"
      ]
    }
  ]
}