{
  "name": "Londyn i Reykjavik, wrzesień 2019",
  "breweries": [
    {
      "name": "Bloomsbury Brewery",
      "visited": "2019-09-19",
      "location": {
        "country": "gb",
        "city": "London",
        "address": "63 Lamb's Conduit St",
        "coordinates": {
          "lat": 51.522247,
          "lng": -0.118833
        }
      },
      "tags": [
        "Anglia",
        "browar restauracyjny",
        "piwo spróbowane na miejscu",
        "spotkanie z piwowarem",
        "browar stołeczny"
      ]
    },
    {
      "name": "Essex Street Brewing Company",
      "visited": "2019-09-19",
      "location": {
        "country": "gb",
        "city": "London",
        "address": "46 Essex Street",
        "coordinates": {
          "lat": 51.512938,
          "lng": -0.113029
        }
      },
      "tags": [
        "Anglia",
        "browar restauracyjny",
        "piwo spróbowane na miejscu",
        "browar stołeczny"
      ]
    },
    {
      "name": "Southwark Brewing Company",
      "visited": "2019-09-20",
      "location": {
        "country": "gb",
        "city": "London",
        "address": "46 Druid St",
        "coordinates": {
          "lat": 51.50058,
          "lng": -0.07707
        }
      },
      "tags": [
        "Anglia",
        "obejrzany sprzęt",
        "piwo spróbowane na miejscu",
        "spotkanie z piwowarem",
        "londyńska piwna mila",
        "brewpub",
        "browar stołeczny"
      ]
    },
    {
      "name": "The London Beer Factory (The Barrel Project)",
      "visited": "2019-09-20",
      "location": {
        "country": "gb",
        "city": "London",
        "address": "80 Druid St",
        "coordinates": {
          "lat": 51.499691,
          "lng": -0.075274
        }
      },
      "tags": [
        "Anglia",
        "obejrzany sprzęt",
        "piwo spróbowane na miejscu",
        "londyńska piwna mila",
        "brewpub",
        "mikrobrowar",
        "browar stołeczny"
      ]
    },
    {
      "name": "Hawkes Cidery",
      "visited": "2019-09-20",
      "location": {
        "country": "gb",
        "city": "London",
        "address": "86-92 Druid St",
        "coordinates": {
          "lat": 51.4996,
          "lng": -0.07496
        }
      },
      "tags": [
        "Anglia",
        "cydrownia",
        "obejrzany sprzęt",
        "brewpub",
        "piwo spróbowane na miejscu",
        "londyńska piwna mila",
        "browar stołeczny"
      ]
    },
    {
      "name": "Anspach & Hobday",
      "visited": "2019-09-20",
      "location": {
        "country": "gb",
        "city": "London",
        "address": "118 Druid St",
        "coordinates": {
          "lat": 51.49869,
          "lng": -0.0735
        }
      },
      "tags": [
        "Anglia",
        "obejrzany sprzęt",
        "piwo spróbowane na miejscu",
        "spotkanie z piwowarem",
        "londyńska piwna mila",
        "mikrobrowar",
        "brewpub",
        "browar stołeczny"
      ]
    },
    {
      "name": "Brew by Numbers",
      "visited": "2019-09-20",
      "location": {
        "country": "gb",
        "city": "London",
        "address": "75 Enid St.",
        "coordinates": {
          "lat": 51.49763,
          "lng": -0.07237
        }
      },
      "tags": [
        "Anglia",
        "obejrzany sprzęt",
        "piwo spróbowane poza browarem",
        "piwo spróbowane na miejscu",
        "londyńska piwna mila",
        "mikrobrowar",
        "brewpub",
        "browar stołeczny"
      ]
    },
    {
      "name": "Bianca Road Brew Co.",
      "visited": "2019-09-20",
      "location": {
        "country": "gb",
        "city": "London",
        "address": "83 Enid St.",
        "coordinates": {
          "lat": 51.49721,
          "lng": -0.0717
        }
      },
      "tags": [
        "Anglia",
        "obejrzany sprzęt",
        "piwo spróbowane na miejscu",
        "londyńska piwna mila",
        "mikrobrowar",
        "brewpub",
        "browar stołeczny"
      ]
    },
    {
      "name": "The Kernel Brewery",
      "visited": "2019-09-20",
      "location": {
        "country": "gb",
        "city": "London",
        "address": "Arch 11, Dockley Road Industrial Estate",
        "coordinates": {
          "lat": 51.495756,
          "lng": -0.06853
        }
      },
      "tags": [
        "Anglia",
        "spotkanie z piwowarem",
        "obejrzany sprzęt",
        "londyńska piwna mila",
        "mikrobrowar",
        "piwo spróbowane poza browarem",
        "browar stołeczny"
      ]
    },
    {
      "name": "Affinity Brew Co.",
      "visited": "2019-09-20",
      "location": {
        "country": "gb",
        "city": "London",
        "address": "7 Almond Rd",
        "coordinates": {
          "lat": 51.49193,
          "lng": -0.06
        }
      },
      "tags": [
        "Anglia",
        "obejrzany sprzęt",
        "piwo spróbowane na miejscu",
        "londyńska piwna mila",
        "brewpub",
        "browar stołeczny"
      ]
    },
    {
      "name": "Partizan Brewing",
      "visited": "2019-09-20",
      "location": {
        "country": "gb",
        "city": "London",
        "address": "34 Raymouth Rd",
        "coordinates": {
          "lat": 51.49144,
          "lng": -0.05756
        }
      },
      "tags": [
        "Anglia",
        "obejrzany sprzęt",
        "piwo spróbowane na miejscu",
        "spotkanie z piwowarem",
        "londyńska piwna mila",
        "brewpub",
        "mikrobrowar",
        "browar stołeczny"
      ]
    },
    {
      "name": "Fourpure Brewing Co.",
      "visited": "2019-09-20",
      "location": {
        "country": "gb",
        "city": "London",
        "address": "22 Rotherhithe New Rd",
        "coordinates": {
          "lat": 51.48887,
          "lng": -0.05348
        }
      },
      "tags": [
        "Anglia",
        "obejrzany sprzęt",
        "piwo spróbowane na miejscu",
        "piwo spróbowane poza browarem",
        "londyńska piwna mila",
        "instalacja BrauKon",
        "brewpub",
        "mikrobrowar",
        "browar stołeczny"
      ]
    },
    {
      "name": "Meantime Brewing Company",
      "visited": "2019-09-21",
      "location": {
        "country": "gb",
        "city": "London",
        "address": "Lawrence Trading Estate, Blackwall Ln",
        "coordinates": {
          "lat": 51.489341,
          "lng": 0.007872
        }
      },
      "tags": [
        "Anglia",
        "obejrzany sprzęt",
        "piwo spróbowane na miejscu",
        "brewpub",
        "browar stołeczny"
      ]
    },
    {
      "name": "BrewDog Tower Hill Outpost",
      "visited": "2019-09-21",
      "location": {
        "country": "gb",
        "city": "London",
        "address": "21 Great Tower St",
        "coordinates": {
          "lat": 51.509897,
          "lng": -0.080747
        }
      },
      "tags": [
        "Anglia",
        "obejrzany sprzęt",
        "piwo spróbowane na miejscu",
        "brewpub",
        "BrewDog Outpost",
        "browar stołeczny"
      ]
    },
    {
      "name": "Goose Island Brewpub London",
      "visited": "2019-09-21",
      "location": {
        "country": "gb",
        "city": "London",
        "address": "222 Shoreditch High St",
        "coordinates": {
          "lat": 51.522763,
          "lng": -0.07818
        }
      },
      "tags": [
        "Anglia",
        "obejrzany sprzęt",
        "piwo spróbowane na miejscu",
        "brewpub",
        "browar stołeczny"
      ]
    },
    {
      "name": "Long Arm Pub & Brewery",
      "visited": "2019-09-21",
      "location": {
        "country": "gb",
        "city": "London",
        "address": "20-26 Worship St",
        "coordinates": {
          "lat": 51.521923,
          "lng": -0.085566
        }
      },
      "tags": [
        "Anglia",
        "obejrzany sprzęt",
        "piwo spróbowane na miejscu",
        "browar restauracyjny",
        "browar stołeczny"
      ]
    },
    {
      "name": "Fountain Brewhouse",
      "visited": "2019-09-21",
      "location": {
        "country": "gb",
        "city": "London",
        "address": "3 Baldwin Street",
        "coordinates": {
          "lat": 51.527013,
          "lng": -0.088969
        }
      },
      "tags": [
        "Anglia",
        "piwo spróbowane na miejscu",
        "browar restauracyjny",
        "browar stołeczny"
      ]
    },
    {
      "name": "RVK Brewing Company",
      "visited": "2019-09-22",
      "location": {
        "country": "is",
        "city": "Reykjavík",
        "address": "Skipholt 31",
        "coordinates": {
          "lat": 64.14077,
          "lng": -21.90024
        }
      },
      "tags": [
        "obejrzany sprzęt",
        "piwo spróbowane na miejscu",
        "spotkanie z piwowarem",
        "mikrobrowar",
        "brewpub",
        "browar stołeczny"
      ]
    },
    {
      "name": "Bastarður Brew Pub",
      "visited": "2019-09-22",
      "location": {
        "country": "is",
        "city": "Reykjavík",
        "address": "Vegamótastígur 4",
        "coordinates": {
          "lat": 64.1457,
          "lng": -21.93074
        }
      },
      "tags": [
        "obejrzany sprzęt",
        "browar restauracyjny",
        "piwo spróbowane na miejscu",
        "browar stołeczny"
      ]
    },
    {
      "name": "Bryggjan Brugghús",
      "visited": "2019-09-23",
      "location": {
        "country": "is",
        "city": "Reykjavík",
        "address": "Vesturbær",
        "coordinates": {
          "lat": 64.153121,
          "lng": -21.949361
        }
      },
      "tags": [
        "obejrzany sprzęt",
        "browar restauracyjny",
        "piwo spróbowane na miejscu",
        "instalacja Ziptech",
        "browar stołeczny"
      ]
    },
    {
      "name": "Ægisgarður",
      "visited": "2019-09-23",
      "location": {
        "country": "is",
        "city": "Reykjavík",
        "address": "Eyjarslóð 5",
        "coordinates": {
          "lat": 64.15805,
          "lng": -21.93981
        }
      },
      "tags": [
        "obejrzany sprzęt",
        "piwo spróbowane na miejscu",
        "spotkanie z piwowarem",
        "mikrobrowar",
        "brewpub",
        "browar stołeczny"
      ]
    }
  ]
}