{
  "name": "Czechy, Austria i Słowacja, październik 2019",
  "breweries": [
    {
      "name": "Vesnický Pivovar Ohrada",
      "visited": "2019-10-18",
      "location": {
        "country": "cz",
        "city": "Vísky",
        "address": "Vísky 100",
        "coordinates": {
          "lat": 49.53336,
          "lng": 16.625266
        }
      },
      "tags": [
        "browar restauracyjny",
        "piwo spróbowane na miejscu",
        "obejrzany sprzęt",
        "kraj południowomorawski"
      ]
    },
    {
      "name": "Charlie's Square",
      "visited": "2019-10-18",
      "location": {
        "country": "cz",
        "city": "Brno",
        "address": "Františkánská 498\/7",
        "coordinates": {
          "lat": 49.192723,
          "lng": 16.611327
        }
      },
      "tags": [
        "browar restauracyjny",
        "piwo spróbowane na miejscu",
        "obejrzany sprzęt",
        "kraj południowomorawski"
      ]
    },
    {
      "name": "Minipivovar Pegas",
      "visited": "2019-10-18",
      "location": {
        "country": "cz",
        "city": "Brno",
        "address": "Jakubská 120\/4",
        "coordinates": {
          "lat": 49.196222,
          "lng": 16.607166
        }
      },
      "tags": [
        "browar restauracyjny",
        "piwo spróbowane na miejscu",
        "obejrzany sprzęt",
        "kraj południowomorawski",
        "instalacja Caspary"
      ]
    },
    {
      "name": "U Tomana",
      "visited": "2019-10-18",
      "location": {
        "country": "cz",
        "city": "Brno",
        "address": "Svobody 22",
        "coordinates": {
          "lat": 49.195189,
          "lng": 16.607101
        }
      },
      "tags": [
        "browar restauracyjny",
        "piwo spróbowane na miejscu",
        "obejrzany sprzęt",
        "kraj południowomorawski"
      ]
    },
    {
      "name": "Dürnsteiner Privatbrauerei",
      "visited": "2019-10-19",
      "location": {
        "country": "at",
        "city": "Bad Deutsch-Altenburg",
        "address": "Eumigstraße 1",
        "coordinates": {
          "lat": 48.123018,
          "lng": 16.906429
        }
      },
      "tags": [
        "przybrowarniany sklep",
        "piwo spróbowane na wynos",
        "obejrzany sprzęt"
      ]
    },
    {
      "name": "Bratislavský Meštiansky Pivovar (Dunajská)",
      "visited": "2019-10-19",
      "location": {
        "country": "sk",
        "city": "Bratislava",
        "address": "Dunajská 21",
        "coordinates": {
          "lat": 48.14583,
          "lng": 17.11786
        }
      },
      "tags": [
        "browar restauracyjny",
        "piwo spróbowane na miejscu",
        "obejrzany sprzęt",
        "sieć Bratislavský Meštiansky Pivovar",
        "browar stołeczny"
      ]
    },
    {
      "name": "Mestský pivovar Alžbetka",
      "visited": "2019-10-19",
      "location": {
        "country": "sk",
        "city": "Bratislava",
        "address": "Mickiewiczova 2242\/1",
        "coordinates": {
          "lat": 48.149447,
          "lng": 17.114082
        }
      },
      "tags": [
        "browar restauracyjny",
        "piwo spróbowane na miejscu",
        "obejrzany sprzęt",
        "browar stołeczny"
      ]
    },
    {
      "name": "Starosloviensky pivovar",
      "visited": "2019-10-19",
      "location": {
        "country": "sk",
        "city": "Bratislava",
        "address": "Vysoká 4260\/15",
        "coordinates": {
          "lat": 48.148954,
          "lng": 17.110637
        }
      },
      "tags": [
        "browar restauracyjny",
        "piwo spróbowane na miejscu",
        "browar stołeczny"
      ]
    },
    {
      "name": "Fabrika, the beer pub",
      "visited": "2019-10-19",
      "location": {
        "country": "sk",
        "city": "Bratislava",
        "address": "Štefánikova 864\/4",
        "coordinates": {
          "lat": 48.151809,
          "lng": 17.10718
        }
      },
      "tags": [
        "browar restauracyjny",
        "piwo spróbowane na miejscu",
        "obejrzany sprzęt",
        "instalacja Ziptech",
        "browar stołeczny"
      ]
    },
    {
      "name": "Bratislavský Meštiansky Pivovar (Drevena)",
      "visited": "2019-10-19",
      "location": {
        "country": "sk",
        "city": "Bratislava",
        "address": "Drevena 8",
        "coordinates": {
          "lat": 48.14697,
          "lng": 17.108149
        }
      },
      "tags": [
        "browar restauracyjny",
        "piwo spróbowane na miejscu",
        "obejrzany sprzęt",
        "sieć Bratislavský Meštiansky Pivovar",
        "browar stołeczny"
      ]
    },
    {
      "name": "Kláštorný pivovar",
      "visited": "2019-10-19",
      "location": {
        "country": "sk",
        "city": "Bratislava",
        "address": "Námestie SNP 469/8",
        "coordinates": {
          "lat": 48.146218,
          "lng": 17.110072
        }
      },
      "tags": [
        "browar restauracyjny",
        "piwo spróbowane na miejscu",
        "obejrzany sprzęt",
        "instalacja Pacovske Strojirny",
        "browar stołeczny"
      ]
    },
    {
      "name": "Dunajský Pivovar",
      "visited": "2019-10-19",
      "location": {
        "country": "sk",
        "city": "Bratislava",
        "address": "Tyršovo nábrežie",
        "coordinates": {
          "lat": 48.137207,
          "lng": 17.112638
        }
      },
      "note": "Browar umiejscowiony na (tak, na!) Dunaju, a dokładniej na statku przycumowanym do zachodniego brzegu rzeki, zaraz obok ładnego parku ze świetnym widokiem na bratysławski zamek. Na miejscu jasna i ciemna jedenastka oraz domowy radler. Warzelnia widoczna od razu przy wejściu. Warto odwiedzić!",
      "tags": [
        "browar restauracyjny",
        "piwo spróbowane na miejscu",
        "obejrzany sprzęt",
        "browar na wodzie",
        "browar nad rzeką",
        "browar stołeczny"
      ]
    },
    {
      "name": "Pivovar HOPS",
      "visited": "2019-10-19",
      "location": {
        "country": "sk",
        "city": "Bratislava",
        "address": "Vilová 2995\/4",
        "coordinates": {
          "lat": 48.123973,
          "lng": 17.096923
        }
      },
      "tags": [
        "browar restauracyjny",
        "piwo spróbowane na miejscu",
        "obejrzany sprzęt",
        "browar stołeczny"
      ]
    },
    {
      "name": "Pivovar u Tří králů",
      "visited": "2019-10-21",
      "location": {
        "country": "cz",
        "city": "Prostějov",
        "address": "Finská 8",
        "coordinates": {
          "lat": 49.471997,
          "lng": 17.088442
        }
      },
      "tags": [
        "browar restauracyjny",
        "piwo spróbowane na miejscu",
        "obejrzany sprzęt",
        "kraj ołomuniecki",
        "instalacja MBS"
      ]
    },
    {
      "name": "U krále Ječmínka",
      "visited": "2019-10-21",
      "location": {
        "country": "cz",
        "city": "Prostějov",
        "address": "Újezd 4a",
        "coordinates": {
          "lat": 49.472261,
          "lng": 17.116604
        }
      },
      "tags": [
        "browar restauracyjny",
        "piwo spróbowane na miejscu",
        "obejrzany sprzęt",
        "kraj ołomuniecki"
      ]
    },
    {
      "name": "Pivovar u Císařské cesty",
      "visited": "2019-10-21",
      "location": {
        "country": "cz",
        "city": "Držovice",
        "address": "Olomoucká 275\/262",
        "coordinates": {
          "lat": 49.492819,
          "lng": 17.131276
        }
      },
      "tags": [
        "browar restauracyjny",
        "piwo spróbowane na miejscu",
        "obejrzany sprzęt",
        "kraj ołomuniecki"
      ]
    }
  ]
}