{"label":"2014","slug":"2014","extremes":{"north":"51.13172","east":"16.35655","south":"48.203395","west":"17.284356"},"breweries":[{"id":4,"name":"Browar Widawa","slug":"browar-widawa","location":{"country":{"name":"Polska","symbol":"pl","slug":"polska"},"coordinates":["17.284356","51.083917"],"city":"Chrząstawa Mała","address":"Wrocławska 97"},"date":"czerwiec 2014"},{"id":5,"name":"1516 Brewing Company","slug":"1516-brewing-company","location":{"country":{"name":"Austria","symbol":"at","slug":"austria"},"coordinates":["16.373066","48.203395"],"city":"Wien","address":"Schwarzenbergstraße 2"},"date":"grudzień 2014"},{"id":6,"name":"Lichtenthaler Bräu","slug":"lichtenthaler-brau","location":{"country":{"name":"Austria","symbol":"at","slug":"austria"},"coordinates":["16.356550","48.230206"],"city":"Wien","address":"Liechtensteinstraße 108"},"date":"grudzień 2014"},{"id":7,"name":"Browar Stu Mostów","slug":"browar-stu-mostow","location":{"country":{"name":"Polska","symbol":"pl","slug":"polska"},"coordinates":["17.059509","51.131720"],"city":"Wrocław","address":"Jana Długosza 2"},"date":"grudzień 2014"}]}