{"label":"2018","slug":"2018","extremes":{"north":"59.44202","east":"4.891825","south":"35.48685","west":"24.765466"},"breweries":[{"id":78,"name":"Landskron Brau-Manufaktur","slug":"landskron-brau-manufaktur","location":{"country":{"name":"Niemcy","symbol":"de","slug":"niemcy"},"coordinates":["14.988460","51.139940"],"city":"Görlitz","address":"An der Landskronbrauerei 116"},"date":"marzec 2018"},{"id":79,"name":"Obermühle Brauhaus","slug":"obermuhle-brauhaus","location":{"country":{"name":"Niemcy","symbol":"de","slug":"niemcy"},"coordinates":["14.994513","51.143985"],"city":"Görlitz","address":"An der Obermühle 5"},"date":"marzec 2018"},{"id":80,"name":"Browar Jedlinka","slug":"browar-jedlinka","location":{"country":{"name":"Polska","symbol":"pl","slug":"polska"},"coordinates":["16.358363","50.713068"],"city":"Jedlina-Zdrój","address":"Zamkowa 3"},"date":"maj 2018"},{"id":81,"name":"Pałacyk Łąkomin","slug":"palacyk-lakomin","location":{"country":{"name":"Polska","symbol":"pl","slug":"polska"},"coordinates":["14.859883","52.765263"],"city":"Lubiszyn","address":"Łąkomin 1"},"date":"maj 2018"},{"id":82,"name":"Browar Miedziowy 44","slug":"browar-miedziowy-44","location":{"country":{"name":"Polska","symbol":"pl","slug":"polska"},"coordinates":["14.263898","53.917795"],"city":"Świnoujście","address":"Uzdrowiskowa 15"},"date":"czerwiec 2018"},{"id":83,"name":"U Černého Medvěda","slug":"u-cerneho-medveda","location":{"country":{"name":"Czechy","symbol":"cz","slug":"czechy"},"coordinates":["16.600025","50.030091"],"city":"Jablonné nad Orlicí","address":"5. května 24"},"date":"lipiec 2018"},{"id":84,"name":"Minipivovar U Jirsáka","slug":"minipivovar-u-jirsaka","location":{"country":{"name":"Czechy","symbol":"cz","slug":"czechy"},"coordinates":["17.001775","49.967264"],"city":"Vikýřovice","address":"Šumperská 128"},"date":"lipiec 2018"},{"id":85,"name":"Minipivovar Zlosin","slug":"minipivovar-zlosin","location":{"country":{"name":"Czechy","symbol":"cz","slug":"czechy"},"coordinates":["17.027992","50.033608"],"city":"Velké Losiny","address":"Žárovská 10"},"date":"lipiec 2018"},{"id":86,"name":"Pivovar Holba","slug":"pivovar-holba","location":{"country":{"name":"Czechy","symbol":"cz","slug":"czechy"},"coordinates":["16.927799","50.069870"],"city":"Hanušovice","address":"Pivovarská 261"},"date":"lipiec 2018"},{"id":87,"name":"Browar Wieżyca","slug":"browar-wiezyca","location":{"country":{"name":"Polska","symbol":"pl","slug":"polska"},"coordinates":["16.729274","50.887922"],"city":"Sobótka","address":"Armii Krajowej 13"},"date":"sierpień 2018"},{"id":88,"name":"Browar Caminus","slug":"browar-caminus","location":{"country":{"name":"Polska","symbol":"pl","slug":"polska"},"coordinates":["16.766502","51.030983"],"city":"Kąty Wrocławskie","address":"1 Maja 11"},"date":"sierpień 2018"},{"id":89,"name":"Sieradzki Browar Restauracyjny Pompa","slug":"sieradzki-browar-restauracyjny-pompa","location":{"country":{"name":"Polska","symbol":"pl","slug":"polska"},"coordinates":["18.737615","51.594687"],"city":"Sieradz","address":"Rynek 17"},"date":"sierpień 2018"},{"id":90,"name":"Κρητική Ζυθοποιία","slug":"krhtikh-zythopoiia","location":{"country":{"name":"Grecja","symbol":"gr","slug":"grecja"},"coordinates":["23.825786","35.486850"],"city":"Ζουνάκι","address":"Δ. Πλατανιάς"},"date":"wrzesień 2018"},{"id":91,"name":"Jan Olbracht Browar Staromiejski","slug":"jan-olbracht-browar-staromiejski","location":{"country":{"name":"Polska","symbol":"pl","slug":"polska"},"coordinates":["18.605791","53.011100"],"city":"Toruń","address":"Szczytna 15"},"date":"wrzesień 2018"},{"id":92,"name":"Browar Świdnica","slug":"browar-swidnica","location":{"country":{"name":"Polska","symbol":"pl","slug":"polska"},"coordinates":["16.499660","50.830839"],"city":"Świdnica","address":"Bystrzycka 28b"},"date":"październik 2018"},{"id":93,"name":"Warsztat Piwowarski","slug":"warsztat-piwowarski","location":{"country":{"name":"Polska","symbol":"pl","slug":"polska"},"coordinates":["17.070944","51.081644"],"city":"Wrocław","address":"Międzyleska 2-4"},"date":"październik 2018"},{"id":94,"name":"Heineken Experience","slug":"heineken-experience","location":{"country":{"name":"Holandia","symbol":"nl","slug":"holandia"},"coordinates":["4.891825","52.357833"],"city":"Amsterdam","address":"Stadhouderskade 78"},"date":"listopad 2018"},{"id":95,"name":"Brouwerij Homeland","slug":"brouwerij-homeland","location":{"country":{"name":"Holandia","symbol":"nl","slug":"holandia"},"coordinates":["4.916755","52.373034"],"city":"Amsterdam","address":"Kattenburgerstraat 5"},"date":"listopad 2018"},{"id":96,"name":"Brouwerij 't IJ","slug":"brouwerij-t-ij","location":{"country":{"name":"Holandia","symbol":"nl","slug":"holandia"},"coordinates":["4.926416","52.366697"],"city":"Amsterdam","address":"Funenkade 7"},"date":"listopad 2018"},{"id":97,"name":"Oedipus Brewing","slug":"oedipus-brewing","location":{"country":{"name":"Holandia","symbol":"nl","slug":"holandia"},"coordinates":["4.921233","52.383559"],"city":"Amsterdam","address":"Gedempt Hamerkanaal 85"},"date":"listopad 2018"},{"id":98,"name":"Walhalla Brouwerij","slug":"walhalla-brouwerij","location":{"country":{"name":"Holandia","symbol":"nl","slug":"holandia"},"coordinates":["4.920534","52.385424"],"city":"Amsterdam","address":"Spijkerkade 10"},"date":"listopad 2018"},{"id":99,"name":"De Bekeerde Suster","slug":"de-bekeerde-suster","location":{"country":{"name":"Holandia","symbol":"nl","slug":"holandia"},"coordinates":["4.899240","52.372070"],"city":"Amsterdam","address":"Kloveniersburgwal 6"},"date":"listopad 2018"},{"id":100,"name":"Brouwerij de Prael","slug":"brouwerij-de-prael","location":{"country":{"name":"Holandia","symbol":"nl","slug":"holandia"},"coordinates":["4.899736","52.375484"],"city":"Amsterdam","address":"Oudezijds Armsteeg 20"},"date":"listopad 2018"},{"id":101,"name":"Bierfabriek Amsterdam","slug":"bierfabriek-amsterdam","location":{"country":{"name":"Holandia","symbol":"nl","slug":"holandia"},"coordinates":["4.893586","52.370059"],"city":"Amsterdam","address":"Nes 67"},"date":"listopad 2018"},{"id":102,"name":"Poesiat & Kater","slug":"poesiat-kater","location":{"country":{"name":"Holandia","symbol":"nl","slug":"holandia"},"coordinates":["4.935709","52.357670"],"city":"Amsterdam","address":"Polderweg 648"},"date":"listopad 2018"},{"id":103,"name":"Beerhouse","slug":"beerhouse","location":{"country":{"name":"Estonia","symbol":"ee","slug":"estonia"},"coordinates":["24.743865","59.436893"],"city":"Tallinn","address":"Dunkri 5"},"date":"grudzień 2018"},{"id":104,"name":"Koch Pruulikoda","slug":"koch-pruulikoda","location":{"country":{"name":"Estonia","symbol":"ee","slug":"estonia"},"coordinates":["24.765466","59.442020"],"city":"Tallinn","address":"Lootsi 10"},"date":"grudzień 2018"},{"id":105,"name":"Humalakoda","slug":"humalakoda","location":{"country":{"name":"Estonia","symbol":"ee","slug":"estonia"},"coordinates":["24.735516","59.440728"],"city":"Tallinn","address":"Kopli 1"},"date":"grudzień 2018"},{"id":106,"name":"Browar Zielone Wzgórze","slug":"browar-zielone-wzgorze","location":{"country":{"name":"Polska","symbol":"pl","slug":"polska"},"coordinates":["16.735107","50.845959"],"city":"Sulistrowiczki","address":"Parkowa 3"},"date":"grudzień 2018"}]}