{"label":"2019","slug":"2019","extremes":{"north":"64.15805","east":"-21.949361","south":"35.85439","west":"30.595857"},"breweries":[{"id":107,"name":"Põhjala Brewery","slug":"pohjala-brewery","location":{"country":{"name":"Estonia","symbol":"ee","slug":"estonia"},"coordinates":["24.727030","59.450336"],"city":"Tallinn","address":"Peetri 5"},"date":"luty 2019"},{"id":108,"name":"Ресторан-пивоварня Кумпель","slug":"restoran-pivovarnya-kumpel","location":{"country":{"name":"Ukraina","symbol":"ua","slug":"ukraina"},"coordinates":["24.036136","49.839288"],"city":"Львів","address":"Вынныченка 6"},"date":"kwiecień 2019"},{"id":109,"name":"Чеська пивоварня Старгород","slug":"ceska-pivovarnya-stargorod","location":{"country":{"name":"Ukraina","symbol":"ua","slug":"ukraina"},"coordinates":["24.037532","49.839396"],"city":"Львів","address":"Республиканская 1"},"date":"kwiecień 2019"},{"id":110,"name":"36по","slug":"36po","location":{"country":{"name":"Ukraina","symbol":"ua","slug":"ukraina"},"coordinates":["24.030911","49.842393"],"city":"Львів","address":"Ринок 36"},"date":"kwiecień 2019"},{"id":111,"name":"Львівська пивоварня","slug":"lvivska-pivovarnya","location":{"country":{"name":"Ukraina","symbol":"ua","slug":"ukraina"},"coordinates":["24.015718","49.847699"],"city":"Львів","address":"Клепарівська 18"},"date":"kwiecień 2019"},{"id":112,"name":"Театр пива Правда","slug":"teatr-piva-pravda","location":{"country":{"name":"Ukraina","symbol":"ua","slug":"ukraina"},"coordinates":["24.030382","49.842030"],"city":"Львів","address":"Ринок 32"},"date":"kwiecień 2019"},{"id":113,"name":"Королівська Пивоварня","slug":"korolivska-pivovarnya","location":{"country":{"name":"Ukraina","symbol":"ua","slug":"ukraina"},"coordinates":["24.032198","49.840609"],"city":"Львів","address":"Староєврейська 9"},"date":"kwiecień 2019"},{"id":114,"name":"Bergquell Brauerei Löbau","slug":"bergquell-brauerei-lobau","location":{"country":{"name":"Niemcy","symbol":"de","slug":"niemcy"},"coordinates":["14.659918","51.108824"],"city":"Löbau","address":"Weststraße 7"},"date":"maj 2019"},{"id":115,"name":"Brauhaus am Waldschlösschen","slug":"brauhaus-am-waldschlosschen","location":{"country":{"name":"Niemcy","symbol":"de","slug":"niemcy"},"coordinates":["13.778064","51.067905"],"city":"Dresden","address":"Am Brauhaus 8B"},"date":"maj 2019"},{"id":116,"name":"Neustädter Hausbrauerei Schwingenheuer","slug":"neustadter-hausbrauerei-schwingenheuer","location":{"country":{"name":"Niemcy","symbol":"de","slug":"niemcy"},"coordinates":["13.746962","51.069392"],"city":"Dresden","address":"Schönbrunnstraße 1"},"date":"maj 2019"},{"id":117,"name":"Ball & Brauhaus Watzke","slug":"ball-brauhaus-watzke","location":{"country":{"name":"Niemcy","symbol":"de","slug":"niemcy"},"coordinates":["13.715799","51.077546"],"city":"Dresden","address":"Kötzschenbroder Str. 1"},"date":"maj 2019"},{"id":118,"name":"Frenzel-Bräu","slug":"frenzel-brau","location":{"country":{"name":"Niemcy","symbol":"de","slug":"niemcy"},"coordinates":["14.419708","51.171262"],"city":"Bautzen","address":"Humboldtstraße 21A"},"date":"maj 2019"},{"id":119,"name":"Bautzener Brauhaus","slug":"bautzener-brauhaus","location":{"country":{"name":"Niemcy","symbol":"de","slug":"niemcy"},"coordinates":["14.439666","51.179811"],"city":"Bautzen","address":"Thomas-Mann-Straße 7"},"date":"maj 2019"},{"id":120,"name":"Browar Brewicz","slug":"browar-brewicz","location":{"country":{"name":"Polska","symbol":"pl","slug":"polska"},"coordinates":["16.869328","51.613867"],"city":"Rawicz","address":"Armii Krajowej 4"},"date":"maj 2019"},{"id":121,"name":"Birrbante","slug":"birrbante","location":{"country":{"name":"Włochy","symbol":"it","slug":"wlochy"},"coordinates":["16.844995","41.100290"],"city":"Bari","address":"Via Marco Partipilo 62"},"date":"czerwiec 2019"},{"id":122,"name":"Birrificio Bilabì","slug":"birrificio-bilabi","location":{"country":{"name":"Włochy","symbol":"it","slug":"wlochy"},"coordinates":["16.880071","41.105738"],"city":"Bari","address":"Via Adolfo Omodeo 12"},"date":"czerwiec 2019"},{"id":123,"name":"Birra del Console","slug":"birra-del-console","location":{"country":{"name":"Włochy","symbol":"it","slug":"wlochy"},"coordinates":["17.291384","40.956784"],"city":"Monopoli","address":"Via Trieste 24"},"date":"czerwiec 2019"},{"id":124,"name":"The Brew","slug":"the-brew","location":{"country":{"name":"Malta","symbol":"mt","slug":"malta"},"coordinates":["14.501739","35.908412"],"city":"Tas-Sliema","address":"The Strand 74"},"date":"czerwiec 2019"},{"id":125,"name":"Brauerei Montekristo","slug":"brauerei-montekristo","location":{"country":{"name":"Malta","symbol":"mt","slug":"malta"},"coordinates":["14.461659","35.854390"],"city":"Ħal Luqa","address":"Triq Ħal Farruġ"},"date":"czerwiec 2019"},{"id":126,"name":"Lord Chambray","slug":"lord-chambray","location":{"country":{"name":"Malta","symbol":"mt","slug":"malta"},"coordinates":["14.261515","36.035978"],"city":"Ix-Xewkija","address":"Mgarr Road"},"date":"czerwiec 2019"},{"id":127,"name":"Salio Browar & Restauracja","slug":"salio-browar-restauracja","location":{"country":{"name":"Polska","symbol":"pl","slug":"polska"},"coordinates":["19.511639","51.952939"],"city":"Besiekierz Rudny","address":"Besiekierz Rudny 50"},"date":"lipiec 2019"},{"id":128,"name":"Klubopiwiarnia Warkot","slug":"klubopiwiarnia-warkot","location":{"country":{"name":"Polska","symbol":"pl","slug":"polska"},"coordinates":["19.458399","51.770301"],"city":"Łódź","address":"Narutowicza 7\/9"},"date":"lipiec 2019"},{"id":129,"name":"Портер Паб (Хрещатик)","slug":"porter-pab-xreshhatik","location":{"country":{"name":"Ukraina","symbol":"ua","slug":"ukraina"},"coordinates":["30.523882","50.447535"],"city":"Київ","address":"вул. Хрещатик, 15\/4"},"date":"lipiec 2019"},{"id":130,"name":"Шато Robert Doms","slug":"sato-robert-doms","location":{"country":{"name":"Ukraina","symbol":"ua","slug":"ukraina"},"coordinates":["30.522006","50.448288"],"city":"Київ","address":"вул. Хрещатик, 24"},"date":"lipiec 2019"},{"id":131,"name":"Арена Beer House","slug":"arena-beer-house","location":{"country":{"name":"Ukraina","symbol":"ua","slug":"ukraina"},"coordinates":["30.521249","50.441513"],"city":"Київ","address":"вул. Басейна, 2а"},"date":"lipiec 2019"},{"id":132,"name":"Пиваріум","slug":"pivarium","location":{"country":{"name":"Ukraina","symbol":"ua","slug":"ukraina"},"coordinates":["30.468369","50.450462"],"city":"Київ","address":"проспект Перемоги, 31"},"date":"lipiec 2019"},{"id":133,"name":"Фрау Роза","slug":"frau-roza","location":{"country":{"name":"Ukraina","symbol":"ua","slug":"ukraina"},"coordinates":["30.490120","50.435749"],"city":"Київ","address":"вул. Василя Липківського, 1А"},"date":"lipiec 2019"},{"id":134,"name":"Портер Паб (Костянтинівська)","slug":"porter-pab-kostyantinivska","location":{"country":{"name":"Ukraina","symbol":"ua","slug":"ukraina"},"coordinates":["30.515671","50.465303"],"city":"Київ","address":"вул. Костянтинівська, 2А"},"date":"lipiec 2019"},{"id":135,"name":"Ресторан-Паб Проходимецъ","slug":"restoran-pab-proxodimec","location":{"country":{"name":"Ukraina","symbol":"ua","slug":"ukraina"},"coordinates":["30.508435","50.468964"],"city":"Київ","address":"вул. Костянтинівська, 37"},"date":"lipiec 2019"},{"id":136,"name":"Літпаб Крапка Кома","slug":"litpab-krapka-koma","location":{"country":{"name":"Ukraina","symbol":"ua","slug":"ukraina"},"coordinates":["30.513223","50.437960"],"city":"Київ","address":"вул. Антоновича, 14"},"date":"lipiec 2019"},{"id":137,"name":"To Dublin","slug":"to-dublin","location":{"country":{"name":"Ukraina","symbol":"ua","slug":"ukraina"},"coordinates":["30.595857","50.449775"],"city":"Київ","address":"вул. Раїси Окіпної, 4"},"date":"lipiec 2019"},{"id":138,"name":"Синдикат","slug":"sindikat","location":{"country":{"name":"Ukraina","symbol":"ua","slug":"ukraina"},"coordinates":["30.548349","50.439544"],"city":"Київ","address":"вул. Михайла Омеляновича-Павленка, 6"},"date":"lipiec 2019"},{"id":139,"name":"Броварня Шульц","slug":"brovarnya-sulc","location":{"country":{"name":"Ukraina","symbol":"ua","slug":"ukraina"},"coordinates":["30.491302","50.446478"],"city":"Київ","address":"площа Перемоги, 3"},"date":"lipiec 2019"},{"id":140,"name":"Svatováclavský Pivovar","slug":"svatovaclavsky-pivovar","location":{"country":{"name":"Czechy","symbol":"cz","slug":"czechy"},"coordinates":["17.258709","49.595876"],"city":"Olomouc","address":"Mariánská 845\/4"},"date":"sierpień 2019"},{"id":141,"name":"Hostinský pivovar Moritz","slug":"hostinsky-pivovar-moritz","location":{"country":{"name":"Czechy","symbol":"cz","slug":"czechy"},"coordinates":["17.249779","49.590624"],"city":"Olomouc","address":"Nešverova 2"},"date":"sierpień 2019"},{"id":142,"name":"Pivovar Chomout","slug":"pivovar-chomout","location":{"country":{"name":"Czechy","symbol":"cz","slug":"czechy"},"coordinates":["17.231346","49.641736"],"city":"Olomouc","address":"Dalimilova 18\/92"},"date":"sierpień 2019"},{"id":143,"name":"Pivovar Welzl","slug":"pivovar-welzl","location":{"country":{"name":"Czechy","symbol":"cz","slug":"czechy"},"coordinates":["16.861102","49.887987"],"city":"Zábřeh","address":"Krumpach 2057\/24A"},"date":"sierpień 2019"},{"id":144,"name":"Brauhaus Hartmannsdorf","slug":"brauhaus-hartmannsdorf","location":{"country":{"name":"Niemcy","symbol":"de","slug":"niemcy"},"coordinates":["12.802835","50.886900"],"city":"Hartmannsdorf","address":"Chemnitzer Str. 5"},"date":"sierpień 2019"},{"id":145,"name":"Brauerei Fässla","slug":"brauerei-fassla","location":{"country":{"name":"Niemcy","symbol":"de","slug":"niemcy"},"coordinates":["10.892787","49.897242"],"city":"Bamberg","address":"Obere Königstraße 19-21"},"date":"sierpień 2019"},{"id":146,"name":"Brauerei Spezial","slug":"brauerei-spezial","location":{"country":{"name":"Niemcy","symbol":"de","slug":"niemcy"},"coordinates":["10.892811","49.896867"],"city":"Bamberg","address":"Obere Königstraße 10"},"date":"sierpień 2019"},{"id":147,"name":"Schlenkerla, die historische Rauchbierbrauerei","slug":"schlenkerla-die-historische-rauchbierbrauerei","location":{"country":{"name":"Niemcy","symbol":"de","slug":"niemcy"},"coordinates":["10.884921","49.891714"],"city":"Bamberg","address":"Dominikanerstraße 6"},"date":"sierpień 2019"},{"id":148,"name":"Ambräusianum","slug":"ambrausianum","location":{"country":{"name":"Niemcy","symbol":"de","slug":"niemcy"},"coordinates":["10.884596","49.891779"],"city":"Bamberg","address":"Dominikanerstraße 10"},"date":"sierpień 2019"},{"id":149,"name":"Klosterbräu Bamberg","slug":"klosterbrau-bamberg","location":{"country":{"name":"Niemcy","symbol":"de","slug":"niemcy"},"coordinates":["10.887195","49.889262"],"city":"Bamberg","address":"Obere Mühlbrücke 1-3"},"date":"sierpień 2019"},{"id":150,"name":"Brauerei zum Rossknecht","slug":"brauerei-zum-rossknecht","location":{"country":{"name":"Niemcy","symbol":"de","slug":"niemcy"},"coordinates":["9.188823","48.899164"],"city":"Ludwigsburg","address":"Reithauspl. 21"},"date":"sierpień 2019"},{"id":151,"name":"Wichtel","slug":"wichtel","location":{"country":{"name":"Niemcy","symbol":"de","slug":"niemcy"},"coordinates":["9.003468","48.690027"],"city":"Böblingen","address":"Wolfgang-Brumme-Allee 55"},"date":"sierpień 2019"},{"id":152,"name":"ÔBrasseur","slug":"obrasseur","location":{"country":{"name":"Francja","symbol":"fr","slug":"francja"},"coordinates":["6.029901","46.240913"],"city":"Saint-Genis-Pouilly","address":"45 Rue de Genève"},"date":"sierpień 2019"},{"id":153,"name":"Brasserie du Molard","slug":"brasserie-du-molard","location":{"country":{"name":"Szwajcaria","symbol":"ch","slug":"szwajcaria"},"coordinates":["6.148065","46.203216"],"city":"Genève","address":"Place du Molard 9"},"date":"sierpień 2019"},{"id":154,"name":"BIERlab","slug":"bierlab","location":{"country":{"name":"Szwajcaria","symbol":"ch","slug":"szwajcaria"},"coordinates":["8.526086","47.372520"],"city":"Zürich","address":"Grüngasse 7"},"date":"sierpień 2019"},{"id":155,"name":"Liechtensteiner Brauhaus","slug":"liechtensteiner-brauhaus","location":{"country":{"name":"Liechtenstein","symbol":"li","slug":"liechtenstein"},"coordinates":["9.503731","47.169226"],"city":"Schaan","address":"Im Rösle 8"},"date":"sierpień 2019"},{"id":156,"name":"Beer Factory","slug":"beer-factory","location":{"country":{"name":"Czechy","symbol":"cz","slug":"czechy"},"coordinates":["13.377382","49.748889"],"city":"Plzeň","address":"Dominikánská 8"},"date":"sierpień 2019"},{"id":157,"name":"Plzeňský Prazdroj (experimental microbrewery)","slug":"plzensky-prazdroj-experimental-microbrewery","location":{"country":{"name":"Czechy","symbol":"cz","slug":"czechy"},"coordinates":["13.387387","49.747613"],"city":"Plzeň","address":"U Prazdroje 113"},"date":"sierpień 2019"},{"id":158,"name":"Plzeňský Prazdroj","slug":"plzensky-prazdroj","location":{"country":{"name":"Czechy","symbol":"cz","slug":"czechy"},"coordinates":["13.388640","49.749235"],"city":"Plzeň","address":"U Prazdroje 113"},"date":"sierpień 2019"},{"id":159,"name":"1. Roudenský pivovar","slug":"1-roudensky-pivovar","location":{"country":{"name":"Czechy","symbol":"cz","slug":"czechy"},"coordinates":["13.379986","49.753201"],"city":"Plzeň","address":"Na Roudné 387\/17"},"date":"sierpień 2019"},{"id":160,"name":"Bierhalle Posnania","slug":"bierhalle-posnania","location":{"country":{"name":"Polska","symbol":"pl","slug":"polska"},"coordinates":["16.954274","52.397957"],"city":"Poznań","address":"Pleszewska 1"},"date":"wrzesień 2019"},{"id":161,"name":"Bloomsbury Brewery","slug":"bloomsbury-brewery","location":{"country":{"name":"Wielka Brytania","symbol":"gb","slug":"wielka-brytania"},"coordinates":["-0.118833","51.522247"],"city":"London","address":"63 Lamb's Conduit St"},"date":"wrzesień 2019"},{"id":162,"name":"Essex Street Brewing Company","slug":"essex-street-brewing-company","location":{"country":{"name":"Wielka Brytania","symbol":"gb","slug":"wielka-brytania"},"coordinates":["-0.113029","51.512938"],"city":"London","address":"46 Essex Street"},"date":"wrzesień 2019"},{"id":163,"name":"Southwark Brewing Company","slug":"southwark-brewing-company","location":{"country":{"name":"Wielka Brytania","symbol":"gb","slug":"wielka-brytania"},"coordinates":["-0.077070","51.500580"],"city":"London","address":"46 Druid St"},"date":"wrzesień 2019"},{"id":164,"name":"The London Beer Factory (The Barrel Project)","slug":"the-london-beer-factory-the-barrel-project","location":{"country":{"name":"Wielka Brytania","symbol":"gb","slug":"wielka-brytania"},"coordinates":["-0.075274","51.499691"],"city":"London","address":"80 Druid St"},"date":"wrzesień 2019"},{"id":165,"name":"Hawkes Cidery","slug":"hawkes-cidery","location":{"country":{"name":"Wielka Brytania","symbol":"gb","slug":"wielka-brytania"},"coordinates":["-0.074960","51.499600"],"city":"London","address":"86-92 Druid St"},"date":"wrzesień 2019"},{"id":166,"name":"Anspach & Hobday","slug":"anspach-hobday","location":{"country":{"name":"Wielka Brytania","symbol":"gb","slug":"wielka-brytania"},"coordinates":["-0.073500","51.498690"],"city":"London","address":"118 Druid St"},"date":"wrzesień 2019"},{"id":167,"name":"Brew by Numbers","slug":"brew-by-numbers","location":{"country":{"name":"Wielka Brytania","symbol":"gb","slug":"wielka-brytania"},"coordinates":["-0.072370","51.497630"],"city":"London","address":"75 Enid St."},"date":"wrzesień 2019"},{"id":168,"name":"Bianca Road Brew Co.","slug":"bianca-road-brew-co","location":{"country":{"name":"Wielka Brytania","symbol":"gb","slug":"wielka-brytania"},"coordinates":["-0.071700","51.497210"],"city":"London","address":"83 Enid St."},"date":"wrzesień 2019"},{"id":169,"name":"The Kernel Brewery","slug":"the-kernel-brewery","location":{"country":{"name":"Wielka Brytania","symbol":"gb","slug":"wielka-brytania"},"coordinates":["-0.068530","51.495756"],"city":"London","address":"Arch 11, Dockley Road Industrial Estate"},"date":"wrzesień 2019"},{"id":170,"name":"Affinity Brew Co.","slug":"affinity-brew-co","location":{"country":{"name":"Wielka Brytania","symbol":"gb","slug":"wielka-brytania"},"coordinates":["-0.060000","51.491930"],"city":"London","address":"7 Almond Rd"},"date":"wrzesień 2019"},{"id":171,"name":"Partizan Brewing","slug":"partizan-brewing","location":{"country":{"name":"Wielka Brytania","symbol":"gb","slug":"wielka-brytania"},"coordinates":["-0.057560","51.491440"],"city":"London","address":"34 Raymouth Rd"},"date":"wrzesień 2019"},{"id":172,"name":"Fourpure Brewing Co.","slug":"fourpure-brewing-co","location":{"country":{"name":"Wielka Brytania","symbol":"gb","slug":"wielka-brytania"},"coordinates":["-0.053480","51.488870"],"city":"London","address":"22 Rotherhithe New Rd"},"date":"wrzesień 2019"},{"id":173,"name":"Meantime Brewing Company","slug":"meantime-brewing-company","location":{"country":{"name":"Wielka Brytania","symbol":"gb","slug":"wielka-brytania"},"coordinates":["0.007872","51.489341"],"city":"London","address":"Lawrence Trading Estate, Blackwall Ln"},"date":"wrzesień 2019"},{"id":174,"name":"BrewDog Tower Hill Outpost","slug":"brewdog-tower-hill-outpost","location":{"country":{"name":"Wielka Brytania","symbol":"gb","slug":"wielka-brytania"},"coordinates":["-0.080747","51.509897"],"city":"London","address":"21 Great Tower St"},"date":"wrzesień 2019"},{"id":175,"name":"Goose Island Brewpub London","slug":"goose-island-brewpub-london","location":{"country":{"name":"Wielka Brytania","symbol":"gb","slug":"wielka-brytania"},"coordinates":["-0.078180","51.522763"],"city":"London","address":"222 Shoreditch High St"},"date":"wrzesień 2019"},{"id":176,"name":"Long Arm Pub & Brewery","slug":"long-arm-pub-brewery","location":{"country":{"name":"Wielka Brytania","symbol":"gb","slug":"wielka-brytania"},"coordinates":["-0.085566","51.521923"],"city":"London","address":"20-26 Worship St"},"date":"wrzesień 2019"},{"id":177,"name":"Fountain Brewhouse","slug":"fountain-brewhouse","location":{"country":{"name":"Wielka Brytania","symbol":"gb","slug":"wielka-brytania"},"coordinates":["-0.088969","51.527013"],"city":"London","address":"3 Baldwin Street"},"date":"wrzesień 2019"},{"id":178,"name":"RVK Brewing Company","slug":"rvk-brewing-company","location":{"country":{"name":"Islandia","symbol":"is","slug":"islandia"},"coordinates":["-21.900240","64.140770"],"city":"Reykjavík","address":"Skipholt 31"},"date":"wrzesień 2019"},{"id":179,"name":"Bastarður Brew Pub","slug":"bastardur-brew-pub","location":{"country":{"name":"Islandia","symbol":"is","slug":"islandia"},"coordinates":["-21.930740","64.145700"],"city":"Reykjavík","address":"Vegamótastígur 4"},"date":"wrzesień 2019"},{"id":180,"name":"Bryggjan Brugghús","slug":"bryggjan-brugghus","location":{"country":{"name":"Islandia","symbol":"is","slug":"islandia"},"coordinates":["-21.949361","64.153121"],"city":"Reykjavík","address":"Vesturbær"},"date":"wrzesień 2019"},{"id":181,"name":"Ægisgarður","slug":"aegisgardur","location":{"country":{"name":"Islandia","symbol":"is","slug":"islandia"},"coordinates":["-21.939810","64.158050"],"city":"Reykjavík","address":"Eyjarslóð 5"},"date":"wrzesień 2019"},{"id":182,"name":"Nowy Browar Szczecin","slug":"nowy-browar-szczecin","location":{"country":{"name":"Polska","symbol":"pl","slug":"polska"},"coordinates":["14.549771","53.423912"],"city":"Szczecin","address":"Partyzantów 2"},"date":"październik 2019"},{"id":183,"name":"Browar Stara Komenda","slug":"browar-stara-komenda","location":{"country":{"name":"Polska","symbol":"pl","slug":"polska"},"coordinates":["14.551265","53.421644"],"city":"Szczecin","address":"Plac Batorego 3"},"date":"październik 2019"},{"id":184,"name":"Browar rodzinny Wyszak","slug":"browar-rodzinny-wyszak","location":{"country":{"name":"Polska","symbol":"pl","slug":"polska"},"coordinates":["14.560190","53.424335"],"city":"Szczecin","address":"Księcia Mściwoja II 8"},"date":"październik 2019"},{"id":185,"name":"Browar pod Zamkiem","slug":"browar-pod-zamkiem","location":{"country":{"name":"Polska","symbol":"pl","slug":"polska"},"coordinates":["14.561868","53.426094"],"city":"Szczecin","address":"Panieńska 12"},"date":"październik 2019"},{"id":186,"name":"Vesnický Pivovar Ohrada","slug":"vesnicky-pivovar-ohrada","location":{"country":{"name":"Czechy","symbol":"cz","slug":"czechy"},"coordinates":["16.625266","49.533360"],"city":"Vísky","address":"Vísky 100"},"date":"październik 2019"},{"id":187,"name":"Charlie's Square","slug":"charlies-square","location":{"country":{"name":"Czechy","symbol":"cz","slug":"czechy"},"coordinates":["16.611327","49.192723"],"city":"Brno","address":"Františkánská 498\/7"},"date":"październik 2019"},{"id":188,"name":"Minipivovar Pegas","slug":"minipivovar-pegas","location":{"country":{"name":"Czechy","symbol":"cz","slug":"czechy"},"coordinates":["16.607166","49.196222"],"city":"Brno","address":"Jakubská 120\/4"},"date":"październik 2019"},{"id":189,"name":"U Tomana","slug":"u-tomana","location":{"country":{"name":"Czechy","symbol":"cz","slug":"czechy"},"coordinates":["16.607101","49.195189"],"city":"Brno","address":"Svobody 22"},"date":"październik 2019"},{"id":190,"name":"Dürnsteiner Privatbrauerei","slug":"durnsteiner-privatbrauerei","location":{"country":{"name":"Austria","symbol":"at","slug":"austria"},"coordinates":["16.906429","48.123018"],"city":"Bad Deutsch-Altenburg","address":"Eumigstraße 1"},"date":"październik 2019"},{"id":191,"name":"Bratislavský Meštiansky Pivovar (Dunajská)","slug":"bratislavsky-mestiansky-pivovar-dunajska","location":{"country":{"name":"Słowacja","symbol":"sk","slug":"slowacja"},"coordinates":["17.117860","48.145830"],"city":"Bratislava","address":"Dunajská 21"},"date":"październik 2019"},{"id":192,"name":"Mestský pivovar Alžbetka","slug":"mestsky-pivovar-alzbetka","location":{"country":{"name":"Słowacja","symbol":"sk","slug":"slowacja"},"coordinates":["17.114082","48.149447"],"city":"Bratislava","address":"Mickiewiczova 2242\/1"},"date":"październik 2019"},{"id":193,"name":"Starosloviensky pivovar","slug":"starosloviensky-pivovar","location":{"country":{"name":"Słowacja","symbol":"sk","slug":"slowacja"},"coordinates":["17.110637","48.148954"],"city":"Bratislava","address":"Vysoká 4260\/15"},"date":"październik 2019"},{"id":194,"name":"Fabrika, the beer pub","slug":"fabrika-the-beer-pub","location":{"country":{"name":"Słowacja","symbol":"sk","slug":"slowacja"},"coordinates":["17.107180","48.151809"],"city":"Bratislava","address":"Štefánikova 864\/4"},"date":"październik 2019"},{"id":195,"name":"Bratislavský Meštiansky Pivovar (Drevena)","slug":"bratislavsky-mestiansky-pivovar-drevena","location":{"country":{"name":"Słowacja","symbol":"sk","slug":"slowacja"},"coordinates":["17.108149","48.146970"],"city":"Bratislava","address":"Drevena 8"},"date":"październik 2019"},{"id":196,"name":"Kláštorný pivovar","slug":"klastorny-pivovar","location":{"country":{"name":"Słowacja","symbol":"sk","slug":"slowacja"},"coordinates":["17.110072","48.146218"],"city":"Bratislava","address":"Námestie SNP 469\/8"},"date":"październik 2019"},{"id":197,"name":"Dunajský Pivovar","slug":"dunajsky-pivovar","location":{"country":{"name":"Słowacja","symbol":"sk","slug":"slowacja"},"coordinates":["17.112638","48.137207"],"city":"Bratislava","address":"Tyršovo nábrežie"},"date":"październik 2019"},{"id":198,"name":"Pivovar HOPS","slug":"pivovar-hops","location":{"country":{"name":"Słowacja","symbol":"sk","slug":"slowacja"},"coordinates":["17.096923","48.123973"],"city":"Bratislava","address":"Vilová 2995\/4"},"date":"październik 2019"},{"id":199,"name":"Pivovar u Tří králů","slug":"pivovar-u-tri-kralu","location":{"country":{"name":"Czechy","symbol":"cz","slug":"czechy"},"coordinates":["17.088442","49.471997"],"city":"Prostějov","address":"Finská 8"},"date":"październik 2019"},{"id":200,"name":"U krále Ječmínka","slug":"u-krale-jecminka","location":{"country":{"name":"Czechy","symbol":"cz","slug":"czechy"},"coordinates":["17.116604","49.472261"],"city":"Prostějov","address":"Újezd 4a"},"date":"październik 2019"},{"id":201,"name":"Pivovar u Císařské cesty","slug":"pivovar-u-cisarske-cesty","location":{"country":{"name":"Czechy","symbol":"cz","slug":"czechy"},"coordinates":["17.131276","49.492819"],"city":"Držovice","address":"Olomoucká 275\/262"},"date":"październik 2019"}]}