{"label":"2021","slug":"2021","extremes":{"north":"51.0389","east":"2.634762","south":"39.572875","west":"19.891312"},"breweries":[{"id":236,"name":"Browar Kamienica","slug":"browar-kamienica","location":{"country":{"name":"Polska","symbol":"pl","slug":"polska"},"coordinates":["16.886815","50.251585"],"city":"Kamienica","address":"Kamienica 1a"},"date":"luty 2021"},{"id":237,"name":"Browar Cześć Brat!","slug":"browar-czesc-brat","location":{"country":{"name":"Polska","symbol":"pl","slug":"polska"},"coordinates":["17.350279","51.038900"],"city":"Jelcz-Laskowice","address":"Polna 38"},"date":"kwiecień 2021"},{"id":238,"name":"Browar Brzeg","slug":"browar-brzeg","location":{"country":{"name":"Polska","symbol":"pl","slug":"polska"},"coordinates":["17.464393","50.863125"],"city":"Brzeg","address":"Wrocławska 5"},"date":"kwiecień 2021"},{"id":239,"name":"Minibrowar Majer","slug":"minibrowar-majer","location":{"country":{"name":"Polska","symbol":"pl","slug":"polska"},"coordinates":["18.668052","50.295963"],"city":"Gliwice","address":"Studzienna 8"},"date":"maj 2021"},{"id":240,"name":"Browar Śląski Alternatywa","slug":"browar-slaski-alternatywa","location":{"country":{"name":"Polska","symbol":"pl","slug":"polska"},"coordinates":["18.882784","50.310659"],"city":"Ruda Śląska","address":"Tylna 17"},"date":"maj 2021"},{"id":241,"name":"Browar Podgórz","slug":"browar-podgorz","location":{"country":{"name":"Polska","symbol":"pl","slug":"polska"},"coordinates":["19.891312","49.520641"],"city":"Bielanka","address":"Bielanka 41b"},"date":"maj 2021"},{"id":242,"name":"Browar Przystań","slug":"browar-przystan","location":{"country":{"name":"Polska","symbol":"pl","slug":"polska"},"coordinates":["18.979057","50.289690"],"city":"Chorzów","address":"al. Klonowa 4"},"date":"maj 2021"},{"id":243,"name":"Minibrowar Reden","slug":"minibrowar-reden","location":{"country":{"name":"Polska","symbol":"pl","slug":"polska"},"coordinates":["18.953022","50.294233"],"city":"Chorzów","address":"ul. Jana III Sobieskiego 17"},"date":"maj 2021"},{"id":244,"name":"Cervecería Tramuntana","slug":"cerveceria-tramuntana","location":{"country":{"name":"Hiszpania","symbol":"es","slug":"hiszpania"},"coordinates":["2.639564","39.572875"],"city":"Palma","address":"Carrer de Caro 14"},"date":"czerwiec 2021"},{"id":245,"name":"Cervecería Lowther","slug":"cerveceria-lowther","location":{"country":{"name":"Hiszpania","symbol":"es","slug":"hiszpania"},"coordinates":["2.634762","39.576758"],"city":"Palma","address":"Carrer de Joan Crespí 53"},"date":"czerwiec 2021"},{"id":246,"name":"Adalt Brewing","slug":"adalt-brewing","location":{"country":{"name":"Hiszpania","symbol":"es","slug":"hiszpania"},"coordinates":["2.654872","39.580158"],"city":"Palma","address":"Carrer de l'Arxiduc Lluís Salvador 40"},"date":"czerwiec 2021"},{"id":247,"name":"Forastera Cerveza Artesana","slug":"forastera-cerveza-artesana","location":{"country":{"name":"Hiszpania","symbol":"es","slug":"hiszpania"},"coordinates":["2.792272","39.704038"],"city":"Alaró","address":"Av. Constitució 34"},"date":"czerwiec 2021"}]}