{"label":"maj 2019","slug":"05","extremes":{"north":"51.613867","east":"13.715799","south":"51.067905","west":"16.869328"},"breweries":[{"id":114,"name":"Bergquell Brauerei Löbau","slug":"bergquell-brauerei-lobau","location":{"country":{"name":"Niemcy","symbol":"de","slug":"niemcy"},"coordinates":["14.659918","51.108824"],"city":"Löbau","address":"Weststraße 7"},"date":"maj 2019"},{"id":115,"name":"Brauhaus am Waldschlösschen","slug":"brauhaus-am-waldschlosschen","location":{"country":{"name":"Niemcy","symbol":"de","slug":"niemcy"},"coordinates":["13.778064","51.067905"],"city":"Dresden","address":"Am Brauhaus 8B"},"date":"maj 2019"},{"id":116,"name":"Neustädter Hausbrauerei Schwingenheuer","slug":"neustadter-hausbrauerei-schwingenheuer","location":{"country":{"name":"Niemcy","symbol":"de","slug":"niemcy"},"coordinates":["13.746962","51.069392"],"city":"Dresden","address":"Schönbrunnstraße 1"},"date":"maj 2019"},{"id":117,"name":"Ball & Brauhaus Watzke","slug":"ball-brauhaus-watzke","location":{"country":{"name":"Niemcy","symbol":"de","slug":"niemcy"},"coordinates":["13.715799","51.077546"],"city":"Dresden","address":"Kötzschenbroder Str. 1"},"date":"maj 2019"},{"id":118,"name":"Frenzel-Bräu","slug":"frenzel-brau","location":{"country":{"name":"Niemcy","symbol":"de","slug":"niemcy"},"coordinates":["14.419708","51.171262"],"city":"Bautzen","address":"Humboldtstraße 21A"},"date":"maj 2019"},{"id":119,"name":"Bautzener Brauhaus","slug":"bautzener-brauhaus","location":{"country":{"name":"Niemcy","symbol":"de","slug":"niemcy"},"coordinates":["14.439666","51.179811"],"city":"Bautzen","address":"Thomas-Mann-Straße 7"},"date":"maj 2019"},{"id":120,"name":"Browar Brewicz","slug":"browar-brewicz","location":{"country":{"name":"Polska","symbol":"pl","slug":"polska"},"coordinates":["16.869328","51.613867"],"city":"Rawicz","address":"Armii Krajowej 4"},"date":"maj 2019"}]}