{"label":"czerwiec 2019","slug":"06","extremes":{"north":"41.105738","east":"14.261515","south":"35.85439","west":"17.291384"},"breweries":[{"id":121,"name":"Birrbante","slug":"birrbante","location":{"country":{"name":"Włochy","symbol":"it","slug":"wlochy"},"coordinates":["16.844995","41.100290"],"city":"Bari","address":"Via Marco Partipilo 62"},"date":"czerwiec 2019"},{"id":122,"name":"Birrificio Bilabì","slug":"birrificio-bilabi","location":{"country":{"name":"Włochy","symbol":"it","slug":"wlochy"},"coordinates":["16.880071","41.105738"],"city":"Bari","address":"Via Adolfo Omodeo 12"},"date":"czerwiec 2019"},{"id":123,"name":"Birra del Console","slug":"birra-del-console","location":{"country":{"name":"Włochy","symbol":"it","slug":"wlochy"},"coordinates":["17.291384","40.956784"],"city":"Monopoli","address":"Via Trieste 24"},"date":"czerwiec 2019"},{"id":124,"name":"The Brew","slug":"the-brew","location":{"country":{"name":"Malta","symbol":"mt","slug":"malta"},"coordinates":["14.501739","35.908412"],"city":"Tas-Sliema","address":"The Strand 74"},"date":"czerwiec 2019"},{"id":125,"name":"Brauerei Montekristo","slug":"brauerei-montekristo","location":{"country":{"name":"Malta","symbol":"mt","slug":"malta"},"coordinates":["14.461659","35.854390"],"city":"Ħal Luqa","address":"Triq Ħal Farruġ"},"date":"czerwiec 2019"},{"id":126,"name":"Lord Chambray","slug":"lord-chambray","location":{"country":{"name":"Malta","symbol":"mt","slug":"malta"},"coordinates":["14.261515","36.035978"],"city":"Ix-Xewkija","address":"Mgarr Road"},"date":"czerwiec 2019"}]}