{"label":"lipiec 2019","slug":"07","extremes":{"north":"51.952939","east":"19.458399","south":"50.435749","west":"30.595857"},"breweries":[{"id":127,"name":"Salio Browar & Restauracja","slug":"salio-browar-restauracja","location":{"country":{"name":"Polska","symbol":"pl","slug":"polska"},"coordinates":["19.511639","51.952939"],"city":"Besiekierz Rudny","address":"Besiekierz Rudny 50"},"date":"lipiec 2019"},{"id":128,"name":"Klubopiwiarnia Warkot","slug":"klubopiwiarnia-warkot","location":{"country":{"name":"Polska","symbol":"pl","slug":"polska"},"coordinates":["19.458399","51.770301"],"city":"Łódź","address":"Narutowicza 7\/9"},"date":"lipiec 2019"},{"id":129,"name":"Портер Паб (Хрещатик)","slug":"porter-pab-xreshhatik","location":{"country":{"name":"Ukraina","symbol":"ua","slug":"ukraina"},"coordinates":["30.523882","50.447535"],"city":"Київ","address":"вул. Хрещатик, 15\/4"},"date":"lipiec 2019"},{"id":130,"name":"Шато Robert Doms","slug":"sato-robert-doms","location":{"country":{"name":"Ukraina","symbol":"ua","slug":"ukraina"},"coordinates":["30.522006","50.448288"],"city":"Київ","address":"вул. Хрещатик, 24"},"date":"lipiec 2019"},{"id":131,"name":"Арена Beer House","slug":"arena-beer-house","location":{"country":{"name":"Ukraina","symbol":"ua","slug":"ukraina"},"coordinates":["30.521249","50.441513"],"city":"Київ","address":"вул. Басейна, 2а"},"date":"lipiec 2019"},{"id":132,"name":"Пиваріум","slug":"pivarium","location":{"country":{"name":"Ukraina","symbol":"ua","slug":"ukraina"},"coordinates":["30.468369","50.450462"],"city":"Київ","address":"проспект Перемоги, 31"},"date":"lipiec 2019"},{"id":133,"name":"Фрау Роза","slug":"frau-roza","location":{"country":{"name":"Ukraina","symbol":"ua","slug":"ukraina"},"coordinates":["30.490120","50.435749"],"city":"Київ","address":"вул. Василя Липківського, 1А"},"date":"lipiec 2019"},{"id":134,"name":"Портер Паб (Костянтинівська)","slug":"porter-pab-kostyantinivska","location":{"country":{"name":"Ukraina","symbol":"ua","slug":"ukraina"},"coordinates":["30.515671","50.465303"],"city":"Київ","address":"вул. Костянтинівська, 2А"},"date":"lipiec 2019"},{"id":135,"name":"Ресторан-Паб Проходимецъ","slug":"restoran-pab-proxodimec","location":{"country":{"name":"Ukraina","symbol":"ua","slug":"ukraina"},"coordinates":["30.508435","50.468964"],"city":"Київ","address":"вул. Костянтинівська, 37"},"date":"lipiec 2019"},{"id":136,"name":"Літпаб Крапка Кома","slug":"litpab-krapka-koma","location":{"country":{"name":"Ukraina","symbol":"ua","slug":"ukraina"},"coordinates":["30.513223","50.437960"],"city":"Київ","address":"вул. Антоновича, 14"},"date":"lipiec 2019"},{"id":137,"name":"To Dublin","slug":"to-dublin","location":{"country":{"name":"Ukraina","symbol":"ua","slug":"ukraina"},"coordinates":["30.595857","50.449775"],"city":"Київ","address":"вул. Раїси Окіпної, 4"},"date":"lipiec 2019"},{"id":138,"name":"Синдикат","slug":"sindikat","location":{"country":{"name":"Ukraina","symbol":"ua","slug":"ukraina"},"coordinates":["30.548349","50.439544"],"city":"Київ","address":"вул. Михайла Омеляновича-Павленка, 6"},"date":"lipiec 2019"},{"id":139,"name":"Броварня Шульц","slug":"brovarnya-sulc","location":{"country":{"name":"Ukraina","symbol":"ua","slug":"ukraina"},"coordinates":["30.491302","50.446478"],"city":"Київ","address":"площа Перемоги, 3"},"date":"lipiec 2019"}]}