{"label":"sierpień 2019","slug":"08","extremes":{"north":"50.8869","east":"6.029901","south":"46.203216","west":"17.258709"},"breweries":[{"id":140,"name":"Svatováclavský Pivovar","slug":"svatovaclavsky-pivovar","location":{"country":{"name":"Czechy","symbol":"cz","slug":"czechy"},"coordinates":["17.258709","49.595876"],"city":"Olomouc","address":"Mariánská 845\/4"},"date":"sierpień 2019"},{"id":141,"name":"Hostinský pivovar Moritz","slug":"hostinsky-pivovar-moritz","location":{"country":{"name":"Czechy","symbol":"cz","slug":"czechy"},"coordinates":["17.249779","49.590624"],"city":"Olomouc","address":"Nešverova 2"},"date":"sierpień 2019"},{"id":142,"name":"Pivovar Chomout","slug":"pivovar-chomout","location":{"country":{"name":"Czechy","symbol":"cz","slug":"czechy"},"coordinates":["17.231346","49.641736"],"city":"Olomouc","address":"Dalimilova 18\/92"},"date":"sierpień 2019"},{"id":143,"name":"Pivovar Welzl","slug":"pivovar-welzl","location":{"country":{"name":"Czechy","symbol":"cz","slug":"czechy"},"coordinates":["16.861102","49.887987"],"city":"Zábřeh","address":"Krumpach 2057\/24A"},"date":"sierpień 2019"},{"id":144,"name":"Brauhaus Hartmannsdorf","slug":"brauhaus-hartmannsdorf","location":{"country":{"name":"Niemcy","symbol":"de","slug":"niemcy"},"coordinates":["12.802835","50.886900"],"city":"Hartmannsdorf","address":"Chemnitzer Str. 5"},"date":"sierpień 2019"},{"id":145,"name":"Brauerei Fässla","slug":"brauerei-fassla","location":{"country":{"name":"Niemcy","symbol":"de","slug":"niemcy"},"coordinates":["10.892787","49.897242"],"city":"Bamberg","address":"Obere Königstraße 19-21"},"date":"sierpień 2019"},{"id":146,"name":"Brauerei Spezial","slug":"brauerei-spezial","location":{"country":{"name":"Niemcy","symbol":"de","slug":"niemcy"},"coordinates":["10.892811","49.896867"],"city":"Bamberg","address":"Obere Königstraße 10"},"date":"sierpień 2019"},{"id":147,"name":"Schlenkerla, die historische Rauchbierbrauerei","slug":"schlenkerla-die-historische-rauchbierbrauerei","location":{"country":{"name":"Niemcy","symbol":"de","slug":"niemcy"},"coordinates":["10.884921","49.891714"],"city":"Bamberg","address":"Dominikanerstraße 6"},"date":"sierpień 2019"},{"id":148,"name":"Ambräusianum","slug":"ambrausianum","location":{"country":{"name":"Niemcy","symbol":"de","slug":"niemcy"},"coordinates":["10.884596","49.891779"],"city":"Bamberg","address":"Dominikanerstraße 10"},"date":"sierpień 2019"},{"id":149,"name":"Klosterbräu Bamberg","slug":"klosterbrau-bamberg","location":{"country":{"name":"Niemcy","symbol":"de","slug":"niemcy"},"coordinates":["10.887195","49.889262"],"city":"Bamberg","address":"Obere Mühlbrücke 1-3"},"date":"sierpień 2019"},{"id":150,"name":"Brauerei zum Rossknecht","slug":"brauerei-zum-rossknecht","location":{"country":{"name":"Niemcy","symbol":"de","slug":"niemcy"},"coordinates":["9.188823","48.899164"],"city":"Ludwigsburg","address":"Reithauspl. 21"},"date":"sierpień 2019"},{"id":151,"name":"Wichtel","slug":"wichtel","location":{"country":{"name":"Niemcy","symbol":"de","slug":"niemcy"},"coordinates":["9.003468","48.690027"],"city":"Böblingen","address":"Wolfgang-Brumme-Allee 55"},"date":"sierpień 2019"},{"id":152,"name":"ÔBrasseur","slug":"obrasseur","location":{"country":{"name":"Francja","symbol":"fr","slug":"francja"},"coordinates":["6.029901","46.240913"],"city":"Saint-Genis-Pouilly","address":"45 Rue de Genève"},"date":"sierpień 2019"},{"id":153,"name":"Brasserie du Molard","slug":"brasserie-du-molard","location":{"country":{"name":"Szwajcaria","symbol":"ch","slug":"szwajcaria"},"coordinates":["6.148065","46.203216"],"city":"Genève","address":"Place du Molard 9"},"date":"sierpień 2019"},{"id":154,"name":"BIERlab","slug":"bierlab","location":{"country":{"name":"Szwajcaria","symbol":"ch","slug":"szwajcaria"},"coordinates":["8.526086","47.372520"],"city":"Zürich","address":"Grüngasse 7"},"date":"sierpień 2019"},{"id":155,"name":"Liechtensteiner Brauhaus","slug":"liechtensteiner-brauhaus","location":{"country":{"name":"Liechtenstein","symbol":"li","slug":"liechtenstein"},"coordinates":["9.503731","47.169226"],"city":"Schaan","address":"Im Rösle 8"},"date":"sierpień 2019"},{"id":156,"name":"Beer Factory","slug":"beer-factory","location":{"country":{"name":"Czechy","symbol":"cz","slug":"czechy"},"coordinates":["13.377382","49.748889"],"city":"Plzeň","address":"Dominikánská 8"},"date":"sierpień 2019"},{"id":157,"name":"Plzeňský Prazdroj (experimental microbrewery)","slug":"plzensky-prazdroj-experimental-microbrewery","location":{"country":{"name":"Czechy","symbol":"cz","slug":"czechy"},"coordinates":["13.387387","49.747613"],"city":"Plzeň","address":"U Prazdroje 113"},"date":"sierpień 2019"},{"id":158,"name":"Plzeňský Prazdroj","slug":"plzensky-prazdroj","location":{"country":{"name":"Czechy","symbol":"cz","slug":"czechy"},"coordinates":["13.388640","49.749235"],"city":"Plzeň","address":"U Prazdroje 113"},"date":"sierpień 2019"},{"id":159,"name":"1. Roudenský pivovar","slug":"1-roudensky-pivovar","location":{"country":{"name":"Czechy","symbol":"cz","slug":"czechy"},"coordinates":["13.379986","49.753201"],"city":"Plzeň","address":"Na Roudné 387\/17"},"date":"sierpień 2019"}]}