{"label":"październik 2019","slug":"10","extremes":{"north":"53.426094","east":"14.549771","south":"48.123018","west":"17.131276"},"breweries":[{"id":182,"name":"Nowy Browar Szczecin","slug":"nowy-browar-szczecin","location":{"country":{"name":"Polska","symbol":"pl","slug":"polska"},"coordinates":["14.549771","53.423912"],"city":"Szczecin","address":"Partyzantów 2"},"date":"październik 2019"},{"id":183,"name":"Browar Stara Komenda","slug":"browar-stara-komenda","location":{"country":{"name":"Polska","symbol":"pl","slug":"polska"},"coordinates":["14.551265","53.421644"],"city":"Szczecin","address":"Plac Batorego 3"},"date":"październik 2019"},{"id":184,"name":"Browar rodzinny Wyszak","slug":"browar-rodzinny-wyszak","location":{"country":{"name":"Polska","symbol":"pl","slug":"polska"},"coordinates":["14.560190","53.424335"],"city":"Szczecin","address":"Księcia Mściwoja II 8"},"date":"październik 2019"},{"id":185,"name":"Browar pod Zamkiem","slug":"browar-pod-zamkiem","location":{"country":{"name":"Polska","symbol":"pl","slug":"polska"},"coordinates":["14.561868","53.426094"],"city":"Szczecin","address":"Panieńska 12"},"date":"październik 2019"},{"id":186,"name":"Vesnický Pivovar Ohrada","slug":"vesnicky-pivovar-ohrada","location":{"country":{"name":"Czechy","symbol":"cz","slug":"czechy"},"coordinates":["16.625266","49.533360"],"city":"Vísky","address":"Vísky 100"},"date":"październik 2019"},{"id":187,"name":"Charlie's Square","slug":"charlies-square","location":{"country":{"name":"Czechy","symbol":"cz","slug":"czechy"},"coordinates":["16.611327","49.192723"],"city":"Brno","address":"Františkánská 498\/7"},"date":"październik 2019"},{"id":188,"name":"Minipivovar Pegas","slug":"minipivovar-pegas","location":{"country":{"name":"Czechy","symbol":"cz","slug":"czechy"},"coordinates":["16.607166","49.196222"],"city":"Brno","address":"Jakubská 120\/4"},"date":"październik 2019"},{"id":189,"name":"U Tomana","slug":"u-tomana","location":{"country":{"name":"Czechy","symbol":"cz","slug":"czechy"},"coordinates":["16.607101","49.195189"],"city":"Brno","address":"Svobody 22"},"date":"październik 2019"},{"id":190,"name":"Dürnsteiner Privatbrauerei","slug":"durnsteiner-privatbrauerei","location":{"country":{"name":"Austria","symbol":"at","slug":"austria"},"coordinates":["16.906429","48.123018"],"city":"Bad Deutsch-Altenburg","address":"Eumigstraße 1"},"date":"październik 2019"},{"id":191,"name":"Bratislavský Meštiansky Pivovar (Dunajská)","slug":"bratislavsky-mestiansky-pivovar-dunajska","location":{"country":{"name":"Słowacja","symbol":"sk","slug":"slowacja"},"coordinates":["17.117860","48.145830"],"city":"Bratislava","address":"Dunajská 21"},"date":"październik 2019"},{"id":192,"name":"Mestský pivovar Alžbetka","slug":"mestsky-pivovar-alzbetka","location":{"country":{"name":"Słowacja","symbol":"sk","slug":"slowacja"},"coordinates":["17.114082","48.149447"],"city":"Bratislava","address":"Mickiewiczova 2242\/1"},"date":"październik 2019"},{"id":193,"name":"Starosloviensky pivovar","slug":"starosloviensky-pivovar","location":{"country":{"name":"Słowacja","symbol":"sk","slug":"slowacja"},"coordinates":["17.110637","48.148954"],"city":"Bratislava","address":"Vysoká 4260\/15"},"date":"październik 2019"},{"id":194,"name":"Fabrika, the beer pub","slug":"fabrika-the-beer-pub","location":{"country":{"name":"Słowacja","symbol":"sk","slug":"slowacja"},"coordinates":["17.107180","48.151809"],"city":"Bratislava","address":"Štefánikova 864\/4"},"date":"październik 2019"},{"id":195,"name":"Bratislavský Meštiansky Pivovar (Drevena)","slug":"bratislavsky-mestiansky-pivovar-drevena","location":{"country":{"name":"Słowacja","symbol":"sk","slug":"slowacja"},"coordinates":["17.108149","48.146970"],"city":"Bratislava","address":"Drevena 8"},"date":"październik 2019"},{"id":196,"name":"Kláštorný pivovar","slug":"klastorny-pivovar","location":{"country":{"name":"Słowacja","symbol":"sk","slug":"slowacja"},"coordinates":["17.110072","48.146218"],"city":"Bratislava","address":"Námestie SNP 469\/8"},"date":"październik 2019"},{"id":197,"name":"Dunajský Pivovar","slug":"dunajsky-pivovar","location":{"country":{"name":"Słowacja","symbol":"sk","slug":"slowacja"},"coordinates":["17.112638","48.137207"],"city":"Bratislava","address":"Tyršovo nábrežie"},"date":"październik 2019"},{"id":198,"name":"Pivovar HOPS","slug":"pivovar-hops","location":{"country":{"name":"Słowacja","symbol":"sk","slug":"slowacja"},"coordinates":["17.096923","48.123973"],"city":"Bratislava","address":"Vilová 2995\/4"},"date":"październik 2019"},{"id":199,"name":"Pivovar u Tří králů","slug":"pivovar-u-tri-kralu","location":{"country":{"name":"Czechy","symbol":"cz","slug":"czechy"},"coordinates":["17.088442","49.471997"],"city":"Prostějov","address":"Finská 8"},"date":"październik 2019"},{"id":200,"name":"U krále Ječmínka","slug":"u-krale-jecminka","location":{"country":{"name":"Czechy","symbol":"cz","slug":"czechy"},"coordinates":["17.116604","49.472261"],"city":"Prostějov","address":"Újezd 4a"},"date":"październik 2019"},{"id":201,"name":"Pivovar u Císařské cesty","slug":"pivovar-u-cisarske-cesty","location":{"country":{"name":"Czechy","symbol":"cz","slug":"czechy"},"coordinates":["17.131276","49.492819"],"city":"Držovice","address":"Olomoucká 275\/262"},"date":"październik 2019"}]}