{"label":"październik 2015","slug":"10","extremes":{"north":"51.13097","east":"16.162119","south":"50.082229","west":"17.092478"},"breweries":[{"id":17,"name":"Jamrozowa Polana","slug":"jamrozowa-polana","location":{"country":{"name":"Polska","symbol":"pl","slug":"polska"},"coordinates":["16.369122","50.387856"],"city":"Duszniki-Zdrój","address":"Olimpijska 1"},"date":"październik 2015"},{"id":18,"name":"Pivovar Náchod","slug":"pivovar-nachod","location":{"country":{"name":"Czechy","symbol":"cz","slug":"czechy"},"coordinates":["16.162119","50.417219"],"city":"Náchod","address":"Dobrošovská 130"},"date":"październik 2015"},{"id":19,"name":"Pivovárek Dobruška","slug":"pivovarek-dobruska","location":{"country":{"name":"Czechy","symbol":"cz","slug":"czechy"},"coordinates":["16.162780","50.294666"],"city":"Dobruška","address":"Křovická 267"},"date":"październik 2015"},{"id":20,"name":"Pivovar Rychnov nad Kněžnou","slug":"pivovar-rychnov-nad-kneznou","location":{"country":{"name":"Czechy","symbol":"cz","slug":"czechy"},"coordinates":["16.278665","50.171188"],"city":"Rychnov nad Kněžnou","address":"Kaštany 435"},"date":"październik 2015"},{"id":21,"name":"Pivovar Clock","slug":"pivovar-clock","location":{"country":{"name":"Czechy","symbol":"cz","slug":"czechy"},"coordinates":["16.307572","50.082229"],"city":"Potštejn","address":"Školní 2"},"date":"październik 2015"},{"id":22,"name":"Minipivovar Žamberk Kanec","slug":"minipivovar-zamberk-kanec","location":{"country":{"name":"Czechy","symbol":"cz","slug":"czechy"},"coordinates":["16.460829","50.087102"],"city":"Žamberk","address":"Československé armády 1400"},"date":"październik 2015"},{"id":23,"name":"Browar Profesja","slug":"browar-profesja","location":{"country":{"name":"Polska","symbol":"pl","slug":"polska"},"coordinates":["17.092478","51.130970"],"city":"Wrocław","address":"Kwidzyńska 6E"},"date":"październik 2015"}]}