{"label":"maj 2021","slug":"05","extremes":{"north":"50.310659","east":"18.668052","south":"49.520641","west":"19.891312"},"breweries":[{"id":239,"name":"Minibrowar Majer","slug":"minibrowar-majer","location":{"country":{"name":"Polska","symbol":"pl","slug":"polska"},"coordinates":["18.668052","50.295963"],"city":"Gliwice","address":"Studzienna 8"},"date":"maj 2021"},{"id":240,"name":"Browar Śląski Alternatywa","slug":"browar-slaski-alternatywa","location":{"country":{"name":"Polska","symbol":"pl","slug":"polska"},"coordinates":["18.882784","50.310659"],"city":"Ruda Śląska","address":"Tylna 17"},"date":"maj 2021"},{"id":241,"name":"Browar Podgórz","slug":"browar-podgorz","location":{"country":{"name":"Polska","symbol":"pl","slug":"polska"},"coordinates":["19.891312","49.520641"],"city":"Bielanka","address":"Bielanka 41b"},"date":"maj 2021"},{"id":242,"name":"Browar Przystań","slug":"browar-przystan","location":{"country":{"name":"Polska","symbol":"pl","slug":"polska"},"coordinates":["18.979057","50.289690"],"city":"Chorzów","address":"al. Klonowa 4"},"date":"maj 2021"},{"id":243,"name":"Minibrowar Reden","slug":"minibrowar-reden","location":{"country":{"name":"Polska","symbol":"pl","slug":"polska"},"coordinates":["18.953022","50.294233"],"city":"Chorzów","address":"ul. Jana III Sobieskiego 17"},"date":"maj 2021"}]}