{"extremes":{"north":{"id":181,"name":"Ægisgarður","slug":"aegisgardur","location":{"country":{"name":"Islandia","symbol":"is","slug":"islandia"},"coordinates":["-21.939810","64.158050"],"city":"Reykjavík","address":"Eyjarslóð 5"},"date":"wrzesień 2019"},"east":{"id":137,"name":"To Dublin","slug":"to-dublin","location":{"country":{"name":"Ukraina","symbol":"ua","slug":"ukraina"},"coordinates":["30.595857","50.449775"],"city":"Київ","address":"вул. Раїси Окіпної, 4"},"date":"lipiec 2019"},"south":{"id":90,"name":"Κρητική Ζυθοποιία","slug":"kritiki-zithopoiia","location":{"country":{"name":"Grecja","symbol":"gr","slug":"grecja"},"coordinates":["23.825786","35.486850"],"city":"Ζουνάκι","address":"Δ. Πλατανιάς"},"date":"wrzesień 2018"},"west":{"id":180,"name":"Bryggjan Brugghús","slug":"bryggjan-brugghus","location":{"country":{"name":"Islandia","symbol":"is","slug":"islandia"},"coordinates":["-21.949361","64.153121"],"city":"Reykjavík","address":"Vesturbær"},"date":"wrzesień 2019"}},"weekdays":{"2":{"label":"wt","value":5},"7":{"label":"nd","value":47},"6":{"label":"sb","value":74},"5":{"label":"pt","value":55},"3":{"label":"śr","value":15},"4":{"label":"cz","value":20},"1":{"label":"pn","value":19}},"months":{"10":{"label":"X","value":35},"9":{"label":"IX","value":56},"8":{"label":"VIII","value":46},"7":{"label":"VII","value":30},"6":{"label":"VI","value":13},"5":{"label":"V","value":17},"1":{"label":"I","value":1},"4":{"label":"IV","value":6},"2":{"label":"II","value":1},"12":{"label":"XII","value":7},"11":{"label":"XI","value":20},"3":{"label":"III","value":3}}}